
$GPGGA,202424.481,4643.3989,N,11711.2390,W,1,07,1.2,753.6,M,-14.3,M,,0000*68

$GPGSA,A,3,21,27,15,18,24,14,19,,,,,,3.0,1.2,2.7*37

$GPGSV,3,1,12,22,77,299,17,18,58,070,31,14,46,190,32,27,43,248,27*7A

$GPGSV,3,2,12,19,40,289,16,21,36,133,29,24,26,079,27,15,16,047,21*75

$GPGSV,3,3,12,04,16,306,19,11,05,313,,29,00,156,21,26,00,032,20*7D

$GPRMC,202424.481,A,4643.3989,N,11711.2390,W,000.0,330.2,181214,,,A*7F

$GPVTG,330.2,T,,M,000.0,N,000.0,K,A*0F

$GPGGA,202425.481,4643.3989,N,11711.2390,W,1,08,1.1,753.6,M,-14.3,M,,0000*65

$GPGSA,A,3,21,27,22,15,18,24,14,19,,,,,2.3,1.1,2.0*31

$GPGSV,3,1,12,22,77,299,16,18,58,070,31,14,46,190,32,27,43,248,26*7A

$GPGSV,3,2,12,19,40,289,17,21,36,133,28,24,26,079,27,15,16,047,21*75

$GPGSV,3,3,12,04,16,306,19,11,05,313,,29,00,156,21,26,00,032,20*7D

$GPRMC,202425.481,A,4643.3989,N,11711.2390,W,000.0,330.2,181214,,,A*7E

$GPVTG,330.2,T,,M,000.0,N,000.0,K,A*0F

$GPGGA,202426.481,4643.3989,N,11711.2390,W,1,07,1.2,753.6,M,-14.3,M,,0000*6A

$GPGSA,A,3,21,27,15,18,24,14,19,,,,,,3.0,1.2,2.7*37

$GPGSV,3,1,12,22,77,299,15,18,58,070,31,14,46,190,32,27,43,248,28*77

$GPGSV,3,2,12,19,40,289,17,21,36,133,29,24,26,079,28,15,16,047,21*7B

$GPGSV,3,3,12,04,16,306,20,11,05,313,,32,01,259,,29,00,156,21*7E

$GPRMC,202426.481,A,4643.3989,N,11711.2390,W,000.0,330.2,181214,,,A*7D

$GPVTG,330.2,T,,M,000.0,N,000.0,K,A*0F

$GPGGA,202427.481,4643.3989,N,11711.2390,W,1,07,1.2,753.6,M,-14.3,M,,0000*6B

$GPGSA,A,3,21,27,15,18,24,14,19,,,,,,3.0,1.2,2.7*37

$GPGSV,3,1,12,22,78,299,15,18,58,070,31,14,46,190,32,27,43,248,28*78

$GPGSV,3,2,12,19,40,289,17,21,36,133,28,24,26,079,28,15,16,047,21*7A

$GPGSV,3,3,12,04,16,306,20,11,05,313,,32,01,259,,29,00,156,22*7D

$GPRMC,202427.481,A,4643.3989,N,11711.2390,W,000.0,330.2,181214,,,A*7C

$GPVTG,330.2,T,,M,000.0,N,000.0,K,A*0F

$GPGGA,202428.481,4643.3989,N,11711.2390,W,1,06,1.5,753.6,M,-14.3,M,,0000*62

$GPGSA,A,3,21,27,15,18,24,14,,,,,,,3.1,1.5,2.7*39

$GPGSV,3,1,12,22,78,299,15,18,58,070,31,14,46,190,32,27,43,248,27*77

$GPGSV,3,2,12,19,40,289,16,21,36,133,28,24,26,079,28,15,16,047,21*7B

$GPGSV,3,3,12,04,16,306,19,11,05,313,,32,01,259,,29,00,156,22*77

$GPRMC,202428.481,A,4643.3989,N,11711.2390,W,000.0,330.2,181214,,,A*73

$GPVTG,330.2,T,,M,000.0,N,000.0,K,A*0F

$GPGGA,202429.481,4643.3989,N,11711.2390,W,1,06,1.5,753.6,M,-14.3,M,,0000*63

$GPGSA,A,3,21,27,15,18,24,14,,,,,,,3.1,1.5,2.7*39

$GPGSV,3,1,12,22,78,299,13,18,58,070,30,14,46,190,32,27,43,248,28*7F

$GPGSV,3,2,12,19,40,289,16,21,36,133,27,24,26,079,28,15,16,047,21*74

$GPGSV,3,3,12,04,16,306,19,11,05,313,,29,00,156,21,26,00,032,19*77

$GPRMC,202429.481,A,4643.3989,N,11711.2390,W,000.0,330.2,181214,,,A*72

$GPVTG,330.2,T,,M,000.0,N,000.0,K,A*0F

$GPGGA,202430.481,4643.3989,N,11711.2390,W,1,07,1.2,753.6,M,-14.3,M,,0000*6D

$GPGSA,A,3,21,27,15,18,24,14,19,,,,,,3.0,1.2,2.7*37

$GPGSV,3,1,12,22,78,299,12,18,58,070,31,14,46,190,32,27,43,248,28*7F

$GPGSV,3,2,12,19,40,289,16,21,36,133,27,24,26,079,29,15,16,047,21*75

$GPGSV,3,3,12,04,16,306,19,11,05,313,,29,00,156,21,26,00,032,20*7D

$GPRMC,202430.481,A,4643.3989,N,11711.2390,W,000.0,330.2,181214,,,A*7A

$GPVTG,330.2,T,,M,000.0,N,000.0,K,A*0F

$GPGGA,202431.481,4643.3989,N,11711.2390,W,1,07,1.2,753.6,M,-14.3,M,,0000*6C

$GPGSA,A,3,21,27,15,18,24,14,19,,,,,,3.0,1.2,2.7*37

$GPGSV,3,1,12,22,78,299,14,18,58,070,30,14,46,190,32,27,43,248,28*78

$GPGSV,3,2,12,19,40,289,16,21,36,133,27,24,26,079,29,15,16,047,21*75

$GPGSV,3,3,12,04,16,306,19,11,05,313,,29,00,156,21,26,00,032,20*7D

$GPRMC,202431.481,A,4643.3989,N,11711.2390,W,000.0,330.2,181214,,,A*7B

$GPVTG,330.2,T,,M,000.0,N,000.0,K,A*0F

$GPGGA,202432.481,4643.3989,N,11711.2390,W,1,06,1.5,753.6,M,-14.3,M,,0000*69

$GPGSA,A,3,21,27,15,18,24,14,,,,,,,3.1,1.5,2.7*39

$GPGSV,3,1,12,22,78,299,13,18,58,070,30,14,46,190,32,27,42,248,28*7E

$GPGSV,3,2,12,19,40,289,15,21,36,133,26,24,26,079,29,15,16,047,22*74

$GPGSV,3,3,12,04,16,306,19,11,05,313,,29,00,156,21,26,00,032,21*7C

$GPRMC,202432.481,A,4643.3989,N,11711.2390,W,000.0,330.2,181214,,,A*78

$GPVTG,330.2,T,,M,000.0,N,000.0,K,A*0F

$GPGGA,202433.481,4643.3989,N,11711.2390,W,1,06,1.5,753.6,M,-14.3,M,,0000*68

$GPGSA,A,3,21,27,15,18,24,14,,,,,,,3.1,1.5,2.7*39

$GPGSV,3,1,12,22,78,299,12,18,58,070,31,14,46,190,32,27,42,248,28*7E

$GPGSV,3,2,12,19,40,289,15,21,36,133,27,24,26,079,29,15,16,047,22*75

$GPGSV,3,3,12,04,16,306,18,11,05,313,,29,00,156,21,26,00,032,21*7D

$GPRMC,202433.481,A,4643.3989,N,11711.2390,W,000.0,330.2,181214,,,A*79

$GPVTG,330.2,T,,M,000.0,N,000.0,K,A*0F

$GPGGA,202434.481,4643.3989,N,11711.2390,W,1,06,1.5,753.6,M,-14.3,M,,0000*6F

$GPGSA,A,3,21,27,15,18,24,14,,,,,,,3.1,1.5,2.7*39

$GPGSV,3,1,12,22,78,299,13,18,58,070,30,14,46,190,32,27,42,248,28*7E

$GPGSV,3,2,12,19,40,289,14,21,36,133,27,24,26,079,29,15,16,047,22*74

$GPGSV,3,3,12,04,16,306,20,11,05,313,,29,00,156,21,26,00,032,21*76

$GPRMC,202434.481,A,4643.3989,N,11711.2390,W,000.0,330.2,181214,,,A*7E

$GPVTG,330.2,T,,M,000.0,N,000.0,K,A*0F

$GPGGA,202435.481,4643.3989,N,11711.2390,W,1,06,1.5,753.6,M,-14.3,M,,0000*6E

$GPGSA,A,3,21,27,15,18,24,14,,,,,,,3.1,1.5,2.7*39

$GPGSV,3,1,12,22,78,299,13,18,58,070,30,14,46,190,31,27,42,248,27*72

$GPGSV,3,2,12,19,40,289,17,21,36,133,27,24,26,079,29,15,16,047,22*77

$GPGSV,3,3,12,04,16,306,20,11,05,313,,29,00,156,21,26,00,032,21*76

$GPRMC,202435.481,A,4643.3989,N,11711.2390,W,000.0,330.2,181214,,,A*7F

$GPVTG,330.2,T,,M,000.0,N,000.0,K,A*0F

$GPGGA,202436.481,4643.3989,N,11711.2390,W,1,06,1.5,753.6,M,-14.3,M,,0000*6D

$GPGSA,A,3,21,27,15,18,24,14,,,,,,,3.1,1.5,2.7*39

$GPGSV,3,1,12,22,78,299,14,18,58,070,30,14,46,190,31,27,42,248,28*7A

$GPGSV,3,2,12,19,40,289,17,21,36,133,27,24,26,079,28,15,16,047,23*77

$GPGSV,3,3,12,04,16,306,20,11,05,313,,29,00,156,21,26,00,032,21*76

$GPRMC,202436.481,A,4643.3989,N,11711.2390,W,000.0,330.2,181214,,,A*7C

$GPVTG,330.2,T,,M,000.0,N,000.0,K,A*0F

$GPGGA,202437.481,4643.3989,N,11711.2390,W,1,07,1.2,753.6,M,-14.3,M,,0000*6A

$GPGSA,A,3,21,27,15,18,24,14,19,,,,,,3.0,1.2,2.7*37

$GPGSV,3,1,12,22,78,299,16,18,58,070,30,14,46,190,32,27,42,248,29*7A

$GPGSV,3,2,12,19,40,289,18,21,36,133,27,24,26,079,28,15,16,047,22*79

$GPGSV,3,3,12,04,16,306,20,11,05,313,,29,00,156,21,26,00,032,21*76

$GPRMC,202437.481,A,4643.3989,N,11711.2390,W,000.0,330.2,181214,,,A*7D

$GPVTG,330.2,T,,M,000.0,N,000.0,K,A*0F

$GPGGA,202438.481,4643.3989,N,11711.2390,W,1,07,1.2,753.6,M,-14.3,M,,0000*65

$GPGSA,A,3,21,27,15,18,24,14,19,,,,,,3.0,1.2,2.7*37

$GPGSV,3,1,12,22,78,299,18,18,58,070,29,14,46,190,31,27,42,248,29*7F

$GPGSV,3,2,12,19,40,289,18,21,36,133,26,24,26,079,28,15,16,047,22*78

$GPGSV,3,3,12,04,16,306,20,11,05,313,,29,00,156,21,26,00,032,21*76

$GPRMC,202438.481,A,4643.3989,N,11711.2390,W,000.0,330.2,181214,,,A*72

$GPVTG,330.2,T,,M,000.0,N,000.0,K,A*0F

$GPGGA,202439.481,4643.3989,N,11711.2390,W,1,08,1.1,753.6,M,-14.3,M,,0000*68

$GPGSA,A,3,21,27,22,15,18,24,14,19,,,,,2.3,1.1,2.0*31

$GPGSV,3,1,12,22,78,299,18,18,58,070,29,14,46,190,31,27,42,248,29*7F

$GPGSV,3,2,12,19,40,289,17,21,36,133,27,24,26,079,28,15,16,047,22*76

$GPGSV,3,3,12,04,16,306,20,11,05,313,,29,00,156,21,26,00,032,21*76

$GPRMC,202439.481,A,4643.3989,N,11711.2390,W,000.0,330.2,181214,,,A*73

$GPVTG,330.2,T,,M,000.0,N,000.0,K,A*0F

$GPGGA,202440.482,4643.3989,N,11711.2390,W,1,07,1.3,753.6,M,-14.3,M,,0000*68

$GPGSA,A,3,21,27,22,15,18,24,14,,,,,,2.5,1.3,2.1*3C

$GPGSV,3,1,12,22,78,299,18,18,58,070,28,14,46,190,30,27,42,248,28*7E

$GPGSV,3,2,12,19,40,289,17,21,36,133,26,24,26,079,27,15,16,047,22*78

$GPGSV,3,3,12,04,16,306,20,11,05,313,,32,01,259,,26,00,032,21*72

$GPRMC,202440.482,A,4643.3989,N,11711.2390,W,000.0,330.2,181214,,,A*7E

$GPVTG,330.2,T,,M,000.0,N,000.0,K,A*0F

$GPGGA,202441.482,4643.3989,N,11711.2390,W,1,08,1.1,753.6,M,-14.3,M,,0000*64

$GPGSA,A,3,21,27,22,15,18,24,14,19,,,,,2.3,1.1,2.0*31

$GPGSV,3,1,12,22,78,299,19,18,58,070,29,14,46,190,30,27,42,248,28*7E

$GPGSV,3,2,12,19,40,289,16,21,36,133,25,24,26,079,27,15,16,047,22*7A

$GPGSV,3,3,12,04,16,306,20,11,05,313,,32,01,259,,26,00,032,21*72

$GPRMC,202441.482,A,4643.3989,N,11711.2390,W,000.0,330.2,181214,,,A*7F

$GPVTG,330.2,T,,M,000.0,N,000.0,K,A*0F

$GPGGA,202442.482,4643.3989,N,11711.2390,W,1,07,1.3,753.6,M,-14.3,M,,0000*6A

$GPGSA,A,3,21,27,22,15,18,24,14,,,,,,2.5,1.3,2.1*3C

$GPGSV,3,1,12,22,78,299,18,18,58,070,29,14,46,190,30,27,42,248,28*7F

$GPGSV,3,2,12,19,40,289,17,21,36,133,25,24,26,079,27,15,16,047,23*7A

$GPGSV,3,3,12,04,16,306,19,11,05,313,,32,01,259,,26,00,032,20*79

$GPRMC,202442.482,A,4643.3989,N,11711.2390,W,000.0,330.2,181214,,,A*7C

$GPVTG,330.2,T,,M,000.0,N,000.0,K,A*0F

$GPGGA,202443.482,4643.3989,N,11711.2390,W,1,07,1.2,753.6,M,-14.3,M,,0000*6A

$GPGSA,A,3,21,27,15,18,24,14,19,,,,,,3.0,1.2,2.7*37

$GPGSV,3,1,12,22,78,299,18,18,58,070,27,14,46,190,28,27,42,248,28*78

$GPGSV,3,2,12,19,40,289,17,21,36,133,25,24,26,079,27,15,16,047,23*7A

$GPGSV,3,3,12,04,16,306,19,11,05,313,,32,01,259,,26,00,032,20*79

$GPRMC,202443.482,A,4643.3989,N,11711.2390,W,000.0,330.2,181214,,,A*7D

$GPVTG,330.2,T,,M,000.0,N,000.0,K,A*0F

$GPGGA,202444.482,4643.3989,N,11711.2390,W,1,08,1.1,753.6,M,-14.3,M,,0000*61

$GPGSA,A,3,21,27,22,15,18,24,14,19,,,,,2.3,1.1,2.0*31

$GPGSV,3,1,12,22,78,299,18,18,58,070,29,14,46,190,29,27,42,248,27*78

$GPGSV,3,2,12,19,40,289,17,21,36,133,25,24,26,079,27,15,16,047,23*7A

$GPGSV,3,3,12,04,16,306,20,11,05,313,,32,01,259,,26,00,032,20*73

$GPRMC,202444.482,A,4643.3989,N,11711.2390,W,000.0,330.2,181214,,,A*7A

$GPVTG,330.2,T,,M,000.0,N,000.0,K,A*0F

$GPGGA,202445.482,4643.3989,N,11711.2390,W,1,07,1.3,753.6,M,-14.3,M,,0000*6D

$GPGSA,A,3,21,27,22,15,18,24,14,,,,,,2.5,1.3,2.1*3C

$GPGSV,3,1,12,22,78,299,17,18,58,070,28,14,46,190,29,27,42,248,28*79

$GPGSV,3,2,12,19,40,289,16,21,36,133,25,24,26,079,27,15,16,047,23*7B

$GPGSV,3,3,12,04,16,306,20,11,05,313,,32,01,259,,26,00,032,20*73

$GPRMC,202445.482,A,4643.3989,N,11711.2390,W,000.0,330.2,181214,,,A*7B

$GPVTG,330.2,T,,M,000.0,N,000.0,K,A*0F

$GPGGA,202446.482,4643.3989,N,11711.2390,W,1,06,1.5,753.6,M,-14.3,M,,0000*69

$GPGSA,A,3,21,27,15,18,24,14,,,,,,,3.1,1.5,2.7*39

$GPGSV,3,1,12,22,78,299,17,18,58,070,28,14,46,190,29,27,42,248,28*79

$GPGSV,3,2,12,19,40,289,16,21,36,133,25,24,26,079,26,15,16,047,23*7A

$GPGSV,3,3,12,04,16,306,19,11,05,313,,32,01,259,,26,00,032,20*79

$GPRMC,202446.482,A,4643.3989,N,11711.2390,W,000.0,330.2,181214,,,A*78

$GPVTG,330.2,T,,M,000.0,N,000.0,K,A*0F

$GPGGA,202447.482,4643.3989,N,11711.2390,W,1,07,1.2,753.6,M,-14.3,M,,0000*6E

$GPGSA,A,3,21,27,15,18,24,14,19,,,,,,3.0,1.2,2.7*37

$GPGSV,3,1,12,22,78,299,17,18,58,070,28,14,46,190,28,27,42,248,28*78

$GPGSV,3,2,12,19,40,289,15,21,36,133,25,24,26,079,26,15,16,047,23*79

$GPGSV,3,3,12,04,16,306,19,11,05,313,,32,01,259,,26,00,032,20*79

$GPRMC,202447.482,A,4643.3989,N,11711.2390,W,000.0,330.2,181214,,,A*79

$GPVTG,330.2,T,,M,000.0,N,000.0,K,A*0F

$GPGGA,202448.482,4643.3989,N,11711.2390,W,1,08,1.1,753.6,M,-14.3,M,,0000*6D

$GPGSA,A,3,21,27,22,15,18,24,14,19,,,,,2.3,1.1,2.0*31

$GPGSV,3,1,12,22,78,299,17,18,58,070,28,14,46,190,28,27,42,248,29*79

$GPGSV,3,2,12,19,40,289,15,21,36,133,25,24,26,079,25,15,16,047,23*7A

$GPGSV,3,3,12,04,16,306,19,11,05,313,,32,01,259,,26,00,032,20*79

$GPRMC,202448.482,A,4643.3989,N,11711.2390,W,000.0,330.2,181214,,,A*76

$GPVTG,330.2,T,,M,000.0,N,000.0,K,A*0F

$GPGGA,202449.482,4643.3989,N,11711.2390,W,1,08,1.1,753.6,M,-14.3,M,,0000*6C

$GPGSA,A,3,21,27,22,15,18,24,14,19,,,,,2.3,1.1,2.0*31

$GPGSV,3,1,12,22,78,299,16,18,58,070,28,14,46,190,27,27,42,248,28*76

$GPGSV,3,2,12,19,40,289,15,21,36,133,25,24,26,079,25,15,16,047,23*7A

$GPGSV,3,3,12,04,16,306,19,11,05,313,,32,01,259,,26,00,032,20*79

$GPRMC,202449.482,A,4643.3989,N,11711.2390,W,000.0,330.2,181214,,,A*77

$GPVTG,330.2,T,,M,000.0,N,000.0,K,A*0F

$GPGGA,202450.482,4643.3989,N,11711.2390,W,1,08,1.1,753.6,M,-14.3,M,,0000*64

$GPGSA,A,3,21,27,22,15,18,24,14,19,,,,,2.3,1.1,2.0*31

$GPGSV,3,1,12,22,78,299,16,18,58,070,28,14,47,190,27,27,42,248,28*77

$GPGSV,3,2,12,19,40,289,14,21,36,133,25,24,26,079,25,15,16,047,22*7A

$GPGSV,3,3,12,04,16,306,19,11,05,313,,32,01,259,,26,00,032,20*79

$GPRMC,202450.482,A,4643.3989,N,11711.2390,W,000.0,330.2,181214,,,A*7F

$GPVTG,330.2,T,,M,000.0,N,000.0,K,A*0F

$GPGGA,202451.482,4643.3989,N,11711.2390,W,1,07,1.3,753.6,M,-14.3,M,,0000*68

$GPGSA,A,3,21,27,22,15,18,24,14,,,,,,2.5,1.3,2.1*3C

$GPGSV,3,1,12,22,78,299,16,18,58,070,28,14,47,190,27,27,42,248,27*78

$GPGSV,3,2,12,19,40,289,14,21,36,133,24,24,26,079,26,15,16,047,22*78

$GPGSV,3,3,12,04,16,306,18,11,05,313,,32,01,259,,26,00,032,21*79

$GPRMC,202451.482,A,4643.3989,N,11711.2390,W,000.0,330.2,181214,,,A*7E

$GPVTG,330.2,T,,M,000.0,N,000.0,K,A*0F

$GPGGA,202452.482,4643.3989,N,11711.2390,W,1,06,1.5,753.6,M,-14.3,M,,0000*6C

$GPGSA,A,3,21,27,15,18,24,14,,,,,,,3.1,1.5,2.7*39

$GPGSV,3,1,12,22,78,299,15,18,58,070,27,14,47,190,27,27,42,248,28*7B

$GPGSV,3,2,12,19,40,289,12,21,36,133,25,24,26,079,26,15,16,047,22*7F

$GPGSV,3,3,12,04,16,306,19,11,05,313,,32,01,259,,26,00,032,21*78

$GPRMC,202452.482,A,4643.3989,N,11711.2390,W,000.0,330.2,181214,,,A*7D

$GPVTG,330.2,T,,M,000.0,N,000.0,K,A*0F

$GPGGA,202453.482,4643.3989,N,11711.2390,W,1,06,1.5,753.6,M,-14.3,M,,0000*6D

$GPGSA,A,3,21,27,15,18,24,14,,,,,,,3.1,1.5,2.7*39

$GPGSV,3,1,12,22,78,299,16,18,58,070,27,14,47,190,27,27,42,248,28*78

$GPGSV,3,2,12,19,40,289,15,21,36,133,25,24,26,079,26,15,16,047,22*78

$GPGSV,3,3,12,04,16,306,19,11,05,313,,32,01,259,,26,00,032,21*78

$GPRMC,202453.482,A,4643.3989,N,11711.2390,W,000.0,330.2,181214,,,A*7C

$GPVTG,330.2,T,,M,000.0,N,000.0,K,A*0F

$GPGGA,202454.482,4643.3989,N,11711.2390,W,1,06,1.5,753.6,M,-14.3,M,,0000*6A

$GPGSA,A,3,21,27,15,18,24,14,,,,,,,3.1,1.5,2.7*39

$GPGSV,3,1,12,22,78,299,15,18,58,070,26,14,47,190,27,27,42,248,28*7A

$GPGSV,3,2,12,19,40,289,14,21,36,133,25,24,26,079,27,15,16,047,23*79

$GPGSV,3,3,12,04,16,306,19,11,05,313,,32,01,259,,26,00,032,21*78

$GPRMC,202454.482,A,4643.3989,N,11711.2390,W,000.0,330.2,181214,,,A*7B

$GPVTG,330.2,T,,M,000.0,N,000.0,K,A*0F

$GPGGA,202455.482,4643.3989,N,11711.2390,W,1,08,1.1,753.6,M,-14.3,M,,0000*61

$GPGSA,A,3,21,27,22,15,18,24,14,19,,,,,2.3,1.1,2.0*31

$GPGSV,3,1,12,22,78,299,17,18,58,070,25,14,47,190,27,27,42,248,28*7B

$GPGSV,3,2,12,19,40,289,14,21,36,133,24,24,26,079,27,15,16,047,22*79

$GPGSV,3,3,12,04,16,306,18,11,05,313,,32,01,259,,26,00,032,21*79

$GPRMC,202455.482,A,4643.3989,N,11711.2390,W,000.0,330.2,181214,,,A*7A

$GPVTG,330.2,T,,M,000.0,N,000.0,K,A*0F

$GPGGA,202456.482,4643.3989,N,11711.2390,W,1,08,1.1,753.6,M,-14.3,M,,0000*62

$GPGSA,A,3,21,27,22,15,18,24,14,19,,,,,2.3,1.1,2.0*31

$GPGSV,3,1,12,22,78,299,16,18,58,070,26,14,47,190,27,27,42,248,27*76

$GPGSV,3,2,12,19,40,289,14,21,36,133,24,24,26,079,27,15,16,047,22*79

$GPGSV,3,3,12,04,16,306,18,11,05,313,,32,01,259,,26,00,032,21*79

$GPRMC,202456.482,A,4643.3989,N,11711.2390,W,000.0,330.2,181214,,,A*79

$GPVTG,330.2,T,,M,000.0,N,000.0,K,A*0F

$GPGGA,202457.482,4643.3989,N,11711.2390,W,1,06,1.5,753.6,M,-14.3,M,,0000*69

$GPGSA,A,3,21,27,15,18,24,14,,,,,,,3.1,1.5,2.7*39

$GPGSV,3,1,12,22,78,299,17,18,58,070,26,14,47,190,26,27,42,248,27*76

$GPGSV,3,2,12,19,40,289,15,21,36,133,24,24,26,079,28,15,16,047,22*77

$GPGSV,3,3,12,04,16,306,18,11,05,313,,32,01,259,,26,00,032,21*79

$GPRMC,202457.482,A,4643.3989,N,11711.2390,W,000.0,330.2,181214,,,A*78

$GPVTG,330.2,T,,M,000.0,N,000.0,K,A*0F

$GPGGA,202458.482,4643.3989,N,11711.2390,W,1,06,1.5,753.6,M,-14.3,M,,0000*66

$GPGSA,A,3,21,27,15,18,24,14,,,,,,,3.1,1.5,2.7*39

$GPGSV,3,1,12,22,78,300,17,18,58,070,27,14,47,190,25,27,42,248,27*75

$GPGSV,3,2,12,19,40,289,13,21,36,133,24,24,26,079,28,15,16,047,21*72

$GPGSV,3,3,12,04,16,306,18,11,05,313,,32,01,259,,26,00,032,21*79

$GPRMC,202458.482,A,4643.3989,N,11711.2390,W,000.0,330.2,181214,,,A*77

$GPVTG,330.2,T,,M,000.0,N,000.0,K,A*0F

$GPGGA,202459.482,4643.3989,N,11711.2390,W,1,06,1.5,753.6,M,-14.3,M,,0000*67

$GPGSA,A,3,21,27,15,18,24,14,,,,,,,3.1,1.5,2.7*39

$GPGSV,3,1,12,22,78,300,16,18,58,070,27,14,47,190,26,27,42,248,27*77

$GPGSV,3,2,12,19,40,289,14,21,36,133,24,24,26,079,28,15,16,047,21*75

$GPGSV,3,3,12,04,16,306,18,11,05,313,,32,01,259,,26,00,032,21*79

$GPRMC,202459.482,A,4643.3989,N,11711.2390,W,000.0,330.2,181214,,,A*76

$GPVTG,330.2,T,,M,000.0,N,000.0,K,A*0F

$GPGGA,202500.482,4643.3989,N,11711.2390,W,1,07,1.3,753.6,M,-14.3,M,,0000*6D

$GPGSA,A,3,21,27,22,15,18,24,14,,,,,,2.5,1.3,2.1*3C

$GPGSV,3,1,12,22,78,300,16,18,58,070,28,14,47,190,25,27,42,248,27*7B

$GPGSV,3,2,12,19,40,289,12,21,36,133,24,24,26,079,27,15,16,047,21*7C

$GPGSV,3,3,12,04,16,306,18,11,05,313,,32,01,259,,26,00,032,21*79

$GPRMC,202500.482,A,4643.3989,N,11711.2390,W,000.0,330.2,181214,,,A*7B

$GPVTG,330.2,T,,M,000.0,N,000.0,K,A*0F

$GPGGA,202501.482,4643.3989,N,11711.2390,W,1,06,1.5,753.6,M,-14.3,M,,0000*6B

$GPGSA,A,3,21,27,15,18,24,14,,,,,,,3.1,1.5,2.7*39

$GPGSV,3,1,12,22,78,300,16,18,58,070,27,14,47,190,25,27,42,248,27*74

$GPGSV,3,2,12,19,40,289,13,21,36,133,24,24,26,079,29,15,16,047,21*73

$GPGSV,3,3,12,04,16,306,17,11,05,313,,32,01,259,,26,00,032,21*76

$GPRMC,202501.482,A,4643.3989,N,11711.2390,W,000.0,330.2,181214,,,A*7A

$GPVTG,330.2,T,,M,000.0,N,000.0,K,A*0F

$GPGGA,202502.482,4643.3989,N,11711.2390,W,1,06,1.5,753.6,M,-14.3,M,,0000*68

$GPGSA,A,3,21,27,15,18,24,14,,,,,,,3.1,1.5,2.7*39

$GPGSV,3,1,12,22,78,300,15,18,58,070,27,14,47,190,25,27,42,248,26*76

$GPGSV,3,2,12,19,40,289,11,21,36,133,24,24,26,079,27,15,16,047,20*7E

$GPGSV,3,3,12,04,16,306,17,11,05,313,,32,01,259,,26,00,032,21*76

$GPRMC,202502.482,A,4643.3989,N,11711.2390,W,000.0,330.2,181214,,,A*79

$GPVTG,330.2,T,,M,000.0,N,000.0,K,A*0F

$GPGGA,202503.482,4643.3989,N,11711.2390,W,1,07,1.3,753.6,M,-14.3,M,,0000*6E

$GPGSA,A,3,21,27,22,15,18,24,14,,,,,,2.5,1.3,2.1*3C

$GPGSV,3,1,12,22,78,300,15,18,58,070,27,14,47,190,25,27,42,248,26*76

$GPGSV,3,2,12,19,40,289,12,21,36,133,24,24,26,079,27,15,16,047,20*7D

$GPGSV,3,3,12,04,16,306,17,11,05,313,,32,01,259,,26,00,032,21*76

$GPRMC,202503.482,A,4643.3989,N,11711.2390,W,000.0,330.2,181214,,,A*78

$GPVTG,330.2,T,,M,000.0,N,000.0,K,A*0F

$GPGGA,202504.482,4643.3989,N,11711.2390,W,1,07,1.3,753.6,M,-14.3,M,,0000*69

$GPGSA,A,3,21,27,22,15,18,24,14,,,,,,2.5,1.3,2.1*3C

$GPGSV,3,1,12,22,78,300,17,18,58,070,28,14,47,190,25,27,42,248,26*7B

$GPGSV,3,2,12,19,40,289,11,21,36,133,24,24,26,079,28,15,16,047,20*71

$GPGSV,3,3,12,04,16,306,17,11,05,313,,32,01,259,,26,00,032,21*76

$GPRMC,202504.482,A,4643.3989,N,11711.2390,W,000.0,330.2,181214,,,A*7F

$GPVTG,330.2,T,,M,000.0,N,000.0,K,A*0F

$GPGGA,202505.482,4643.3989,N,11711.2390,W,1,07,1.3,753.6,M,-14.3,M,,0000*68

$GPGSA,A,3,21,27,22,15,18,24,14,,,,,,2.5,1.3,2.1*3C

$GPGSV,3,1,12,22,78,300,16,18,58,070,27,14,47,190,25,27,42,248,27*74

$GPGSV,3,2,12,19,40,289,18,21,36,133,24,24,26,079,28,15,16,047,19*72

$GPGSV,3,3,12,04,16,306,17,11,05,313,,32,01,259,,26,00,032,21*76

$GPRMC,202505.482,A,4643.3989,N,11711.2390,W,000.0,330.2,181214,,,A*7E

$GPVTG,330.2,T,,M,000.0,N,000.0,K,A*0F

$GPGGA,202506.482,4643.3989,N,11711.2390,W,1,06,1.5,753.6,M,-14.3,M,,0000*6C

$GPGSA,A,3,21,27,15,18,24,14,,,,,,,3.1,1.5,2.7*39

$GPGSV,3,1,12,22,78,300,17,18,58,070,28,14,47,190,25,27,42,248,26*7B

$GPGSV,3,2,12,19,40,289,17,21,36,133,24,24,26,079,28,15,16,047,19*7D

$GPGSV,3,3,12,04,16,306,17,11,05,313,,32,01,259,,26,00,032,21*76

$GPRMC,202506.482,A,4643.3989,N,11711.2390,W,000.0,330.2,181214,,,A*7D

$GPVTG,330.2,T,,M,000.0,N,000.0,K,A*0F

$GPGGA,202507.482,4643.3989,N,11711.2390,W,1,06,1.5,753.6,M,-14.3,M,,0000*6D

$GPGSA,A,3,21,27,15,18,24,14,,,,,,,3.1,1.5,2.7*39

$GPGSV,3,1,12,22,78,300,17,18,58,070,29,14,47,190,25,27,42,248,27*7B

$GPGSV,3,2,12,19,40,289,17,21,36,133,24,24,26,079,29,15,16,047,19*7C

$GPGSV,3,3,12,04,16,306,19,11,05,313,,32,01,259,,26,00,032,21*78

$GPRMC,202507.482,A,4643.3989,N,11711.2390,W,000.0,330.2,181214,,,A*7C

$GPVTG,330.2,T,,M,000.0,N,000.0,K,A*0F

$GPGGA,202508.482,4643.3989,N,11711.2390,W,1,08,1.1,753.6,M,-14.3,M,,0000*68

$GPGSA,A,3,21,27,22,15,18,24,14,19,,,,,2.3,1.1,2.0*31

$GPGSV,3,1,12,22,78,300,17,18,58,070,29,14,47,190,25,27,42,248,26*7A

$GPGSV,3,2,12,19,40,289,17,21,36,133,24,24,26,079,28,15,16,047,20*77

$GPGSV,3,3,12,04,16,306,19,11,05,313,,32,01,260,,26,00,032,21*72

$GPRMC,202508.482,A,4643.3989,N,11711.2390,W,000.0,330.2,181214,,,A*73

$GPVTG,330.2,T,,M,000.0,N,000.0,K,A*0F

$GPGGA,202509.482,4643.3989,N,11711.2390,W,1,08,1.1,753.6,M,-14.3,M,,0000*69

$GPGSA,A,3,21,27,22,15,18,24,14,19,,,,,2.3,1.1,2.0*31

$GPGSV,3,1,12,22,78,300,17,18,58,070,28,14,47,190,25,27,42,248,26*7B

$GPGSV,3,2,12,19,40,289,16,21,36,133,24,24,26,079,28,15,16,047,20*76

$GPGSV,3,3,12,04,16,306,19,11,05,313,,32,01,260,,26,00,032,21*72

$GPRMC,202509.482,A,4643.3989,N,11711.2390,W,000.0,330.2,181214,,,A*72

$GPVTG,330.2,T,,M,000.0,N,000.0,K,A*0F

$GPGGA,202510.482,4643.3989,N,11711.2390,W,1,08,1.1,753.6,M,-14.3,M,,0000*61

$GPGSA,A,3,21,27,22,15,18,24,14,19,,,,,2.3,1.1,2.0*31

$GPGSV,3,1,12,22,78,300,18,18,58,070,29,14,47,190,25,27,42,248,25*76

$GPGSV,3,2,12,19,40,289,16,21,36,133,24,24,26,079,29,15,16,047,19*7D

$GPGSV,3,3,12,04,16,306,19,11,05,313,,32,01,260,,26,00,032,21*72

$GPRMC,202510.482,A,4643.3989,N,11711.2390,W,000.0,330.2,181214,,,A*7A

$GPVTG,330.2,T,,M,000.0,N,000.0,K,A*0F

$GPGGA,202511.482,4643.3989,N,11711.2390,W,1,08,1.1,753.6,M,-14.3,M,,0000*60

$GPGSA,A,3,21,27,22,15,18,24,14,19,,,,,2.3,1.1,2.0*31

$GPGSV,3,1,12,22,78,300,18,18,58,070,29,14,47,190,25,27,42,248,25*76

$GPGSV,3,2,12,19,40,289,17,21,36,133,25,24,26,079,29,15,16,047,19*7D

$GPGSV,3,3,12,04,16,306,18,11,05,313,,32,01,260,,26,00,032,21*73

$GPRMC,202511.482,A,4643.3989,N,11711.2390,W,000.0,330.2,181214,,,A*7B

$GPVTG,330.2,T,,M,000.0,N,000.0,K,A*0F

$GPGGA,202512.482,4643.3989,N,11711.2390,W,1,08,1.1,753.6,M,-14.3,M,,0000*63

$GPGSA,A,3,21,27,22,15,18,24,14,19,,,,,2.3,1.1,2.0*31

$GPGSV,3,1,12,22,78,300,19,18,58,070,28,14,47,190,25,27,42,248,25*76

$GPGSV,3,2,12,19,40,289,19,21,36,133,24,24,26,079,29,15,16,047,19*72

$GPGSV,3,3,12,04,16,306,18,11,05,313,,32,01,260,,26,00,032,21*73

$GPRMC,202512.482,A,4643.3989,N,11711.2390,W,000.0,330.2,181214,,,A*78

$GPVTG,330.2,T,,M,000.0,N,000.0,K,A*0F

$GPGGA,202513.482,4643.3989,N,11711.2390,W,1,08,1.1,753.6,M,-14.3,M,,0000*62

$GPGSA,A,3,21,27,22,15,18,24,14,19,,,,,2.3,1.1,2.0*31

$GPGSV,3,1,12,22,78,300,18,18,58,070,29,14,47,190,24,27,42,248,25*77

$GPGSV,3,2,12,19,40,289,19,21,36,133,24,24,26,079,28,15,16,047,19*73

$GPGSV,3,3,12,04,16,306,18,11,05,313,,32,01,260,,26,00,032,20*72

$GPRMC,202513.482,A,4643.3989,N,11711.2390,W,000.0,330.2,181214,,,A*79

$GPVTG,330.2,T,,M,000.0,N,000.0,K,A*0F

$GPGGA,202514.482,4643.3989,N,11711.2390,W,1,08,1.1,753.6,M,-14.3,M,,0000*65

$GPGSA,A,3,21,27,22,15,18,24,14,19,,,,,2.3,1.1,2.0*31

$GPGSV,3,1,12,22,78,300,19,18,58,070,29,14,47,190,24,27,42,248,25*76

$GPGSV,3,2,12,19,40,289,19,21,36,133,24,24,26,079,29,15,16,047,19*72

$GPGSV,3,3,12,04,16,306,18,11,05,313,,29,00,156,21,26,00,032,20*7C

$GPRMC,202514.482,A,4643.3989,N,11711.2390,W,000.0,330.2,181214,,,A*7E

$GPVTG,330.2,T,,M,000.0,N,000.0,K,A*0F

$GPGGA,202515.482,4643.3989,N,11711.2390,W,1,08,1.1,753.6,M,-14.3,M,,0000*64

$GPGSA,A,3,21,27,22,15,18,24,14,19,,,,,2.3,1.1,2.0*31

$GPGSV,3,1,12,22,78,300,19,18,58,070,29,14,47,190,24,27,42,248,24*77

$GPGSV,3,2,12,19,40,289,19,21,36,133,24,24,26,079,29,15,16,047,19*72

$GPGSV,3,3,12,04,16,306,19,11,05,313,,29,00,156,22,26,00,032,20*7E

$GPRMC,202515.482,A,4643.3989,N,11711.2390,W,000.0,330.2,181214,,,A*7F

$GPVTG,330.2,T,,M,000.0,N,000.0,K,A*0F

$GPGGA,202516.482,4643.3989,N,11711.2390,W,1,08,1.1,753.6,M,-14.3,M,,0000*67

$GPGSA,A,3,21,27,22,15,18,24,14,19,,,,,2.3,1.1,2.0*31

$GPGSV,3,1,12,22,78,300,19,18,58,070,29,14,47,190,24,27,42,248,24*77

$GPGSV,3,2,12,19,40,289,18,21,36,133,24,24,26,079,29,15,16,047,19*73

$GPGSV,3,3,12,04,16,306,19,11,05,313,,29,00,156,21,26,00,032,20*7D

$GPRMC,202516.482,A,4643.3989,N,11711.2390,W,000.0,330.2,181214,,,A*7C

$GPVTG,330.2,T,,M,000.0,N,000.0,K,A*0F

$GPGGA,202517.482,4643.3989,N,11711.2390,W,1,08,1.1,753.6,M,-14.3,M,,0000*66

$GPGSA,A,3,21,27,22,15,18,24,14,19,,,,,2.3,1.1,2.0*31

$GPGSV,3,1,12,22,78,300,19,18,58,070,29,14,47,190,24,27,42,248,24*77

$GPGSV,3,2,12,19,40,289,18,21,36,133,24,24,26,079,29,15,16,047,19*73

$GPGSV,3,3,12,04,16,306,18,11,05,313,,29,00,156,21,26,00,032,21*7D

$GPRMC,202517.482,A,4643.3989,N,11711.2390,W,000.0,330.2,181214,,,A*7D

$GPVTG,330.2,T,,M,000.0,N,000.0,K,A*0F

$GPGGA,202518.482,4643.3989,N,11711.2390,W,1,08,1.1,753.6,M,-14.3,M,,0000*69

$GPGSA,A,3,21,27,22,15,18,24,14,19,,,,,2.3,1.1,2.0*31

$GPGSV,3,1,12,22,78,300,19,18,58,070,28,14,47,190,23,27,42,248,23*76

$GPGSV,3,2,12,19,40,289,18,21,36,133,25,24,26,079,29,15,16,047,21*79

$GPGSV,3,3,12,04,16,306,19,11,05,313,,29,00,156,22,26,00,032,21*7F

$GPRMC,202518.482,A,4643.3989,N,11711.2390,W,000.0,330.2,181214,,,A*72

$GPVTG,330.2,T,,M,000.0,N,000.0,K,A*0F

$GPGGA,202519.482,4643.3989,N,11711.2390,W,1,08,1.1,753.6,M,-14.3,M,,0000*68

$GPGSA,A,3,21,27,22,15,18,24,14,19,,,,,2.3,1.1,2.0*31

$GPGSV,3,1,12,22,78,300,19,18,58,070,28,14,47,190,23,27,42,248,23*76

$GPGSV,3,2,12,19,40,289,19,21,36,133,25,24,26,079,29,15,16,047,21*78

$GPGSV,3,3,12,04,16,306,18,11,05,313,,29,00,156,22,26,00,032,21*7E

$GPRMC,202519.482,A,4643.3989,N,11711.2390,W,000.0,330.2,181214,,,A*73

$GPVTG,330.2,T,,M,000.0,N,000.0,K,A*0F

$GPGGA,202520.482,4643.3989,N,11711.2390,W,1,08,1.1,753.6,M,-14.3,M,,0000*62

$GPGSA,A,3,21,27,22,15,18,24,14,19,,,,,2.3,1.1,2.0*31

$GPGSV,3,1,12,22,78,300,19,18,58,070,28,14,47,190,23,27,42,248,23*76

$GPGSV,3,2,12,19,40,289,19,21,36,133,25,24,26,079,29,15,16,047,20*79

$GPGSV,3,3,12,04,16,306,18,11,05,313,,29,00,156,22,26,00,032,21*7E

$GPRMC,202520.482,A,4643.3989,N,11711.2390,W,000.0,330.2,181214,,,A*79

$GPVTG,330.2,T,,M,000.0,N,000.0,K,A*0F

$GPGGA,202521.482,4643.3989,N,11711.2390,W,1,08,1.1,753.6,M,-14.3,M,,0000*63

$GPGSA,A,3,21,27,22,15,18,24,14,19,,,,,2.3,1.1,2.0*31

$GPGSV,3,1,12,22,78,300,19,18,58,070,28,14,47,190,22,27,42,248,23*77

$GPGSV,3,2,12,19,40,289,21,21,36,133,24,24,26,079,29,15,16,047,21*72

$GPGSV,3,3,12,04,16,306,18,11,05,313,,29,00,156,21,26,00,032,21*7D

$GPRMC,202521.482,A,4643.3989,N,11711.2390,W,000.0,330.2,181214,,,A*78

$GPVTG,330.2,T,,M,000.0,N,000.0,K,A*0F

$GPGGA,202522.482,4643.3989,N,11711.2390,W,1,08,1.1,753.6,M,-14.3,M,,0000*60

$GPGSA,A,3,21,27,22,15,18,24,14,19,,,,,2.3,1.1,2.0*31

$GPGSV,3,1,12,22,78,300,20,18,58,070,28,14,47,190,22,27,42,248,22*7C

$GPGSV,3,2,12,19,40,289,21,21,36,133,24,24,26,079,29,15,16,047,22*71

$GPGSV,3,3,12,04,16,306,19,11,05,313,,29,00,156,21,26,00,032,20*7D

$GPRMC,202522.482,A,4643.3989,N,11711.2390,W,000.0,330.2,181214,,,A*7B

$GPVTG,330.2,T,,M,000.0,N,000.0,K,A*0F

$GPGGA,202523.482,4643.3989,N,11711.2390,W,1,08,1.1,753.6,M,-14.3,M,,0000*61

$GPGSA,A,3,21,27,22,15,18,24,14,19,,,,,2.3,1.1,2.0*31

$GPGSV,3,1,12,22,78,300,20,18,58,070,27,14,47,190,22,27,42,248,22*73

$GPGSV,3,2,12,19,40,289,21,21,36,133,24,24,26,079,29,15,16,047,22*71

$GPGSV,3,3,12,04,16,306,18,11,05,313,,29,00,156,21,26,00,032,21*7D

$GPRMC,202523.482,A,4643.3989,N,11711.2390,W,000.0,330.2,181214,,,A*7A

$GPVTG,330.2,T,,M,000.0,N,000.0,K,A*0F

$GPGGA,202524.482,4643.3989,N,11711.2390,W,1,08,1.1,753.6,M,-14.3,M,,0000*66

$GPGSA,A,3,21,27,22,15,18,24,14,19,,,,,2.3,1.1,2.0*31

$GPGSV,3,1,12,22,78,300,20,18,58,070,26,14,47,190,21,27,42,248,21*72

$GPGSV,3,2,12,19,40,289,20,21,36,133,23,24,26,079,28,15,16,047,22*76

$GPGSV,3,3,12,04,16,306,18,11,05,313,,29,00,156,21,26,00,032,21*7D

$GPRMC,202524.482,A,4643.3989,N,11711.2390,W,000.0,330.2,181214,,,A*7D

$GPVTG,330.2,T,,M,000.0,N,000.0,K,A*0F

$GPGGA,202525.482,4643.3989,N,11711.2390,W,1,08,1.1,753.6,M,-14.3,M,,0000*67

$GPGSA,A,3,21,27,22,15,18,24,14,19,,,,,2.3,1.1,2.0*31

$GPGSV,3,1,12,22,78,300,21,18,57,070,27,14,47,190,20,27,42,248,21*7C

$GPGSV,3,2,12,19,40,289,20,21,36,133,23,24,26,079,29,15,16,047,22*77

$GPGSV,3,3,12,04,16,306,17,11,05,313,,29,00,156,21,26,00,032,21*72

$GPRMC,202525.482,A,4643.3989,N,11711.2390,W,000.0,330.2,181214,,,A*7C

$GPVTG,330.2,T,,M,000.0,N,000.0,K,A*0F

$GPGGA,202526.482,4643.3989,N,11711.2390,W,1,08,1.1,753.6,M,-14.3,M,,0000*64

$GPGSA,A,3,21,27,22,15,18,24,14,19,,,,,2.3,1.1,2.0*31

$GPGSV,3,1,12,22,78,300,20,18,57,070,26,14,47,190,20,27,42,248,20*7D

$GPGSV,3,2,12,19,40,288,21,21,36,133,23,24,26,079,29,15,16,047,22*77

$GPGSV,3,3,12,04,16,306,17,11,05,313,,29,00,156,21,26,00,032,21*72

$GPRMC,202526.482,A,4643.3989,N,11711.2390,W,000.0,330.2,181214,,,A*7F

$GPVTG,330.2,T,,M,000.0,N,000.0,K,A*0F

$GPGGA,202527.482,4643.3998,N,11711.2396,W,1,08,1.1,752.1,M,-14.3,M,,0000*65

$GPGSA,A,3,21,27,22,15,18,24,14,19,,,,,2.3,1.1,2.0*31

$GPGSV,3,1,12,22,78,300,20,18,57,070,26,14,47,190,20,27,42,248,20*7D

$GPGSV,3,2,12,19,40,288,21,21,36,133,23,24,26,079,27,15,16,047,22*79

$GPGSV,3,3,12,04,16,306,16,11,05,313,,29,00,156,22,26,00,032,21*70

$GPRMC,202527.482,A,4643.3998,N,11711.2396,W,000.8,280.8,181214,,,A*70

$GPVTG,280.8,T,,M,000.8,N,001.6,K,A*00

$GPGGA,202528.482,4643.3998,N,11711.2396,W,1,07,1.2,752.2,M,-14.3,M,,0000*65

$GPGSA,A,3,21,27,15,18,24,14,19,,,,,,3.0,1.2,2.7*37

$GPGSV,3,1,12,22,78,300,20,18,57,070,26,14,47,190,19,27,42,248,19*7D

$GPGSV,3,2,12,19,40,288,21,21,36,134,23,24,26,079,28,15,16,047,22*71

$GPGSV,3,3,12,04,16,306,15,11,05,313,,29,00,156,21,26,00,032,21*70

$GPRMC,202528.482,A,4643.3998,N,11711.2396,W,000.8,260.2,181214,,,A*7B

$GPVTG,260.2,T,,M,000.8,N,001.5,K,A*07

$GPGGA,202529.482,4643.3998,N,11711.2396,W,1,07,1.2,752.2,M,-14.3,M,,0000*64

$GPGSA,A,3,21,27,15,18,24,14,19,,,,,,3.0,1.2,2.7*37

$GPGSV,3,1,12,22,78,301,19,18,57,070,26,14,47,190,19,27,42,248,19*76

$GPGSV,3,2,12,19,40,288,21,21,36,134,23,24,26,079,28,15,16,047,22*71

$GPGSV,3,3,12,04,16,306,13,11,05,313,,29,00,156,21,26,00,032,20*77

$GPRMC,202529.482,A,4643.3998,N,11711.2396,W,000.0,260.2,181214,,,A*72

$GPVTG,260.2,T,,M,000.0,N,000.0,K,A*0B

$GPGGA,202530.482,4643.3998,N,11711.2396,W,1,08,1.1,752.2,M,-14.3,M,,0000*60

$GPGSA,A,3,21,27,22,15,18,24,14,19,,,,,2.3,1.1,2.0*31

$GPGSV,3,1,12,22,78,301,19,18,57,070,26,14,47,190,18,27,42,248,19*77

$GPGSV,3,2,12,19,40,288,21,21,36,134,23,24,26,079,27,15,16,047,22*7E

$GPGSV,3,3,12,04,16,306,13,11,05,313,,29,00,156,21,26,00,032,20*77

$GPRMC,202530.482,A,4643.3998,N,11711.2396,W,000.0,260.2,181214,,,A*7A

$GPVTG,260.2,T,,M,000.0,N,000.0,K,A*0B

$GPGGA,202531.482,4643.3998,N,11711.2396,W,1,08,1.1,752.2,M,-14.3,M,,0000*61

$GPGSA,A,3,21,27,22,15,18,24,14,19,,,,,2.3,1.1,2.0*31

$GPGSV,3,1,12,22,78,301,19,18,57,070,26,14,47,190,18,27,42,248,18*76

$GPGSV,3,2,12,19,40,288,23,21,36,134,23,24,26,078,27,15,16,047,22*7D

$GPGSV,3,3,12,04,16,306,14,11,05,313,,29,00,156,21,26,00,032,21*71

$GPRMC,202531.482,A,4643.3998,N,11711.2396,W,000.0,260.2,181214,,,A*7B

$GPVTG,260.2,T,,M,000.0,N,000.0,K,A*0B

$GPGGA,202532.482,4643.3998,N,11711.2396,W,1,08,1.1,752.2,M,-14.3,M,,0000*62

$GPGSA,A,3,21,27,22,15,18,24,14,19,,,,,2.3,1.1,2.0*31

$GPGSV,3,1,12,22,78,301,20,18,57,070,26,14,47,190,17,27,42,248,18*73

$GPGSV,3,2,12,19,40,288,23,21,36,134,24,24,26,078,28,15,16,047,22*75

$GPGSV,3,3,12,04,16,306,15,11,05,313,,29,00,156,22,26,00,032,21*73

$GPRMC,202532.482,A,4643.3998,N,11711.2396,W,000.0,260.2,181214,,,A*78

$GPVTG,260.2,T,,M,000.0,N,000.0,K,A*0B

$GPGGA,202533.482,4643.3998,N,11711.2396,W,1,08,1.1,752.2,M,-14.3,M,,0000*63

$GPGSA,A,3,21,27,22,15,18,24,14,19,,,,,2.3,1.1,2.0*31

$GPGSV,3,1,12,22,78,301,20,18,57,070,26,14,47,190,16,27,42,248,18*72

$GPGSV,3,2,12,19,40,288,23,21,36,134,23,24,26,078,28,15,16,047,21*71

$GPGSV,3,3,12,04,16,306,14,11,05,313,,29,00,156,22,26,00,032,22*71

$GPRMC,202533.482,A,4643.3998,N,11711.2396,W,000.0,260.2,181214,,,A*79

$GPVTG,260.2,T,,M,000.0,N,000.0,K,A*0B

$GPGGA,202534.482,4643.3998,N,11711.2396,W,1,07,1.3,752.2,M,-14.3,M,,0000*69

$GPGSA,A,3,21,27,22,15,18,24,19,,,,,,2.4,1.3,2.0*31

$GPGSV,3,1,12,22,78,301,20,18,57,070,26,14,47,190,14,27,42,247,17*70

$GPGSV,3,2,12,19,40,288,24,21,36,134,23,24,26,078,28,15,16,047,21*76

$GPGSV,3,3,12,04,16,306,14,11,05,313,,29,00,156,21,26,00,032,21*71

$GPRMC,202534.482,A,4643.3998,N,11711.2396,W,000.0,260.2,181214,,,A*7E

$GPVTG,260.2,T,,M,000.0,N,000.0,K,A*0B

$GPGGA,202535.482,4643.3998,N,11711.2396,W,1,05,1.6,752.2,M,-14.3,M,,0000*6F

$GPGSA,A,3,21,15,18,24,19,,,,,,,,3.2,1.6,2.8*3E

$GPGSV,3,1,12,22,78,301,20,18,57,070,27,14,47,190,12,27,42,247,15*75

$GPGSV,3,2,12,19,40,288,24,21,36,134,23,24,26,078,28,15,16,047,21*76

$GPGSV,3,3,12,04,16,306,14,11,05,313,,29,00,156,21,26,00,032,21*71

$GPRMC,202535.482,A,4643.3998,N,11711.2396,W,000.0,260.2,181214,,,A*7F

$GPVTG,260.2,T,,M,000.0,N,000.0,K,A*0B

$GPGGA,202536.482,4643.3998,N,11711.2396,W,1,07,1.3,752.2,M,-14.3,M,,0000*6B

$GPGSA,A,3,21,27,22,15,18,24,19,,,,,,2.4,1.3,2.0*31

$GPGSV,3,1,12,22,78,301,19,18,57,070,26,14,47,190,11,27,42,247,16*7E

$GPGSV,3,2,12,19,40,288,24,21,36,134,22,24,26,078,29,15,16,047,21*76

$GPGSV,3,3,12,04,16,306,14,11,05,313,,29,00,156,22,26,00,032,21*72

$GPRMC,202536.482,A,4643.3998,N,11711.2396,W,000.0,260.2,181214,,,A*7C

$GPVTG,260.2,T,,M,000.0,N,000.0,K,A*0B

$GPGGA,202537.482,4643.3998,N,11711.2396,W,1,07,1.3,752.2,M,-14.3,M,,0000*6A

$GPGSA,A,3,21,27,22,15,18,24,19,,,,,,2.4,1.3,2.0*31

$GPGSV,3,1,12,22,78,301,21,18,57,070,27,14,47,190,09,27,42,247,17*7C

$GPGSV,3,2,12,19,40,288,25,21,36,134,22,24,26,078,29,15,16,047,21*77

$GPGSV,3,3,12,04,16,306,13,11,05,313,,29,00,156,21,26,00,032,21*76

$GPRMC,202537.482,A,4643.3998,N,11711.2396,W,000.0,260.2,181214,,,A*7D

$GPVTG,260.2,T,,M,000.0,N,000.0,K,A*0B

$GPGGA,202538.482,4643.3998,N,11711.2396,W,1,07,1.3,752.2,M,-14.3,M,,0000*65

$GPGSA,A,3,21,27,22,15,18,24,19,,,,,,2.4,1.3,2.0*31

$GPGSV,3,1,12,22,78,301,21,18,57,070,27,14,47,190,11,27,42,247,17*75

$GPGSV,3,2,12,19,40,288,25,21,36,134,22,24,26,078,28,15,16,047,21*76

$GPGSV,3,3,12,04,16,306,11,11,05,313,,29,00,156,21,26,00,032,21*74

$GPRMC,202538.482,A,4643.3998,N,11711.2396,W,000.0,260.2,181214,,,A*72

$GPVTG,260.2,T,,M,000.0,N,000.0,K,A*0B

$GPGGA,202539.482,4643.3998,N,11711.2396,W,1,07,1.3,752.2,M,-14.3,M,,0000*64

$GPGSA,A,3,21,27,22,15,18,24,19,,,,,,2.4,1.3,2.0*31

$GPGSV,3,1,12,22,78,301,21,18,57,070,26,14,47,190,09,27,42,247,16*7C

$GPGSV,3,2,12,19,40,288,24,21,36,134,21,24,26,078,28,15,16,047,21*74

$GPGSV,3,3,12,04,16,306,10,11,05,313,,29,00,156,21,26,00,032,21*75

$GPRMC,202539.482,A,4643.3998,N,11711.2396,W,000.0,260.2,181214,,,A*73

$GPVTG,260.2,T,,M,000.0,N,000.0,K,A*0B

$GPGGA,202540.482,4643.3998,N,11711.2396,W,1,07,1.3,752.2,M,-14.3,M,,0000*6A

$GPGSA,A,3,21,27,22,15,18,24,19,,,,,,2.4,1.3,2.0*31

$GPGSV,3,1,12,22,78,301,21,18,57,070,27,14,47,190,08,27,42,247,17*7D

$GPGSV,3,2,12,19,40,288,24,21,36,134,20,24,26,078,28,15,16,047,21*75

$GPGSV,3,3,12,04,16,306,09,11,05,313,,29,00,156,21,26,00,032,20*7C

$GPRMC,202540.482,A,4643.3998,N,11711.2396,W,000.0,260.2,181214,,,A*7D

$GPVTG,260.2,T,,M,000.0,N,000.0,K,A*0B

$GPGGA,202541.482,4643.3998,N,11711.2396,W,1,07,1.3,752.2,M,-14.3,M,,0000*6B

$GPGSA,A,3,21,27,22,15,18,24,19,,,,,,2.4,1.3,2.0*31

$GPGSV,3,1,12,22,78,301,21,18,57,070,27,14,47,190,07,27,42,247,19*7C

$GPGSV,3,2,12,19,40,288,24,21,36,134,20,24,26,078,28,15,16,047,21*75

$GPGSV,3,3,12,04,16,306,08,11,05,313,,29,00,156,21,26,00,032,20*7D

$GPRMC,202541.482,A,4643.3998,N,11711.2396,W,000.0,260.2,181214,,,A*7C

$GPVTG,260.2,T,,M,000.0,N,000.0,K,A*0B

$GPGGA,202542.482,4643.3998,N,11711.2396,W,1,07,1.3,752.2,M,-14.3,M,,0000*68

$GPGSA,A,3,21,27,22,15,18,24,19,,,,,,2.4,1.3,2.0*31

$GPGSV,3,1,12,22,78,301,20,18,57,070,27,14,47,190,07,27,42,247,19*7D

$GPGSV,3,2,12,19,40,288,24,21,36,134,20,24,26,078,29,15,16,047,21*74

$GPGSV,3,3,12,04,16,306,07,11,05,313,,29,00,156,21,26,00,032,20*72

$GPRMC,202542.482,A,4643.3998,N,11711.2396,W,000.0,260.2,181214,,,A*7F

$GPVTG,260.2,T,,M,000.0,N,000.0,K,A*0B

$GPGGA,202543.482,4643.3998,N,11711.2396,W,1,07,1.3,752.2,M,-14.3,M,,0000*69

$GPGSA,A,3,21,27,22,15,18,24,19,,,,,,2.4,1.3,2.0*31

$GPGSV,3,1,12,22,78,301,20,18,57,070,27,14,47,190,06,27,42,247,18*7D

$GPGSV,3,2,12,19,40,288,24,21,36,134,19,24,26,078,29,15,16,047,20*7F

$GPGSV,3,3,12,04,16,306,06,11,05,313,,29,00,156,21,26,00,032,21*72

$GPRMC,202543.482,A,4643.3998,N,11711.2396,W,000.0,260.2,181214,,,A*7E

$GPVTG,260.2,T,,M,000.0,N,000.0,K,A*0B

$GPGGA,202544.482,4643.3998,N,11711.2396,W,1,06,1.4,752.2,M,-14.3,M,,0000*68

$GPGSA,A,3,21,27,15,18,24,19,,,,,,,3.1,1.4,2.7*35

$GPGSV,3,1,12,22,78,301,20,18,57,070,26,14,47,190,05,27,42,247,18*7F

$GPGSV,3,2,12,19,40,288,23,21,36,134,18,24,26,078,28,15,16,047,20*78

$GPGSV,3,3,12,04,16,306,06,11,05,313,,29,00,156,21,26,00,032,20*73

$GPRMC,202544.482,A,4643.3998,N,11711.2396,W,000.0,260.2,181214,,,A*79

$GPVTG,260.2,T,,M,000.0,N,000.0,K,A*0B

$GPGGA,202545.482,4643.3998,N,11711.2396,W,1,07,1.3,752.2,M,-14.3,M,,0000*6F

$GPGSA,A,3,21,27,22,15,18,24,19,,,,,,2.4,1.3,2.0*31

$GPGSV,3,1,12,22,78,301,20,18,57,070,26,14,47,190,05,27,42,247,18*7F

$GPGSV,3,2,12,19,40,288,23,21,36,134,18,24,26,078,28,15,16,047,21*79

$GPGSV,3,3,12,04,16,306,10,11,05,313,,29,00,156,20,26,00,032,20*75

$GPRMC,202545.482,A,4643.3998,N,11711.2396,W,000.0,260.2,181214,,,A*78

$GPVTG,260.2,T,,M,000.0,N,000.0,K,A*0B

$GPGGA,202546.482,4643.3998,N,11711.2396,W,1,07,1.3,752.2,M,-14.3,M,,0000*6C

$GPGSA,A,3,21,27,22,15,18,24,19,,,,,,2.4,1.3,2.0*31

$GPGSV,3,1,12,22,78,301,20,18,57,070,27,14,47,190,13,27,42,247,19*78

$GPGSV,3,2,12,19,40,288,23,21,36,134,18,24,26,078,28,15,16,047,21*79

$GPGSV,3,3,12,04,16,306,09,11,05,313,,29,00,156,20,26,00,032,20*7D

$GPRMC,202546.482,A,4643.3998,N,11711.2396,W,000.0,260.2,181214,,,A*7B

$GPVTG,260.2,T,,M,000.0,N,000.0,K,A*0B

$GPGGA,202547.482,4643.3998,N,11711.2396,W,1,07,1.3,752.2,M,-14.3,M,,0000*6D

$GPGSA,A,3,21,27,22,15,18,24,19,,,,,,2.4,1.3,2.0*31

$GPGSV,3,1,12,22,78,301,21,18,57,070,27,14,47,190,11,27,42,247,19*7B

$GPGSV,3,2,12,19,40,288,22,21,36,134,18,24,26,078,28,15,16,047,21*78

$GPGSV,3,3,12,04,16,306,08,11,05,313,,29,00,156,21,26,00,032,20*7D

$GPRMC,202547.482,A,4643.3998,N,11711.2396,W,000.0,260.2,181214,,,A*7A

$GPVTG,260.2,T,,M,000.0,N,000.0,K,A*0B

$GPGGA,202548.482,4643.3997,N,11711.2396,W,1,07,1.3,752.3,M,-14.3,M,,0000*6C

$GPGSA,A,3,21,27,22,15,18,24,19,,,,,,2.4,1.3,2.0*31

$GPGSV,3,1,12,22,78,301,21,18,57,070,27,14,47,190,11,27,42,247,18*7A

$GPGSV,3,2,12,19,40,288,22,21,36,134,18,24,26,078,28,15,16,047,21*78

$GPGSV,3,3,12,04,16,306,08,11,05,313,,29,00,156,21,26,00,032,20*7D

$GPRMC,202548.482,A,4643.3997,N,11711.2396,W,000.8,089.1,181214,,,A*74

$GPVTG,089.1,T,,M,000.8,N,001.5,K,A*01

$GPGGA,202549.482,4643.3997,N,11711.2395,W,1,08,1.1,752.4,M,-14.3,M,,0000*64

$GPGSA,A,3,21,27,22,15,18,24,14,19,,,,,2.3,1.1,2.0*31

$GPGSV,3,1,12,22,78,301,20,18,57,070,28,14,47,190,10,27,42,247,18*75

$GPGSV,3,2,12,19,40,288,22,21,36,134,18,24,26,078,27,15,16,047,20*76

$GPGSV,3,3,12,04,16,306,10,11,06,313,,32,01,260,,26,00,032,20*79

$GPRMC,202549.482,A,4643.3997,N,11711.2395,W,000.8,106.0,181214,,,A*71

$GPVTG,106.0,T,,M,000.8,N,001.6,K,A*05

$GPGGA,202550.482,4643.3997,N,11711.2395,W,1,08,1.1,752.4,M,-14.3,M,,0000*6C

$GPGSA,A,3,21,27,22,15,18,24,14,19,,,,,2.3,1.1,2.0*31

$GPGSV,3,1,12,22,78,301,20,18,57,070,27,14,47,190,13,27,42,247,19*78

$GPGSV,3,2,12,19,40,288,22,21,36,134,18,24,26,078,28,15,16,047,21*78

$GPGSV,3,3,12,04,16,306,10,11,06,313,,32,01,260,,26,00,032,20*79

$GPRMC,202550.482,A,4643.3997,N,11711.2395,W,000.9,122.2,181214,,,A*7C

$GPVTG,122.2,T,,M,000.9,N,001.6,K,A*00

$GPGGA,202551.482,4643.3997,N,11711.2395,W,1,07,1.3,752.4,M,-14.3,M,,0000*60

$GPGSA,A,3,21,27,22,15,18,24,19,,,,,,2.4,1.3,2.0*31

$GPGSV,3,1,12,22,78,301,21,18,57,070,28,14,47,190,13,27,42,247,19*76

$GPGSV,3,2,12,19,40,288,22,21,36,134,18,24,26,078,27,15,16,047,21*77

$GPGSV,3,3,12,04,16,306,09,11,06,313,,32,01,260,,26,00,032,20*71

$GPRMC,202551.482,A,4643.3997,N,11711.2395,W,000.9,124.4,181214,,,A*7D

$GPVTG,124.4,T,,M,000.9,N,001.6,K,A*00

$GPGGA,202552.482,4643.3997,N,11711.2395,W,1,07,1.3,752.4,M,-14.3,M,,0000*63

$GPGSA,A,3,21,27,22,15,18,24,19,,,,,,2.4,1.3,2.0*31

$GPGSV,3,1,12,22,78,301,21,18,57,070,28,14,47,190,15,27,42,247,19*70

$GPGSV,3,2,12,19,40,288,21,21,36,134,21,24,26,078,27,15,16,047,22*7D

$GPGSV,3,3,12,04,16,306,12,11,06,313,,32,01,260,,26,00,032,20*7B

$GPRMC,202552.482,A,4643.3997,N,11711.2395,W,000.0,124.4,181214,,,A*77

$GPVTG,124.4,T,,M,000.0,N,000.0,K,A*0E

$GPGGA,202553.482,4643.3997,N,11711.2395,W,1,08,1.1,752.4,M,-14.3,M,,0000*6F

$GPGSA,A,3,21,27,22,15,18,24,14,19,,,,,2.3,1.1,2.0*31

$GPGSV,3,1,12,22,78,301,21,18,57,070,28,14,47,190,16,27,42,247,19*73

$GPGSV,3,2,12,19,40,288,21,21,36,134,21,24,26,078,27,15,16,047,22*7D

$GPGSV,3,3,12,04,16,306,10,11,06,313,,32,01,260,,26,00,032,20*79

$GPRMC,202553.482,A,4643.3997,N,11711.2395,W,000.0,124.4,181214,,,A*76

$GPVTG,124.4,T,,M,000.0,N,000.0,K,A*0E

$GPGGA,202554.482,4643.3997,N,11711.2395,W,1,08,1.1,752.4,M,-14.3,M,,0000*68

$GPGSA,A,3,21,27,22,15,18,24,14,19,,,,,2.3,1.1,2.0*31

$GPGSV,3,1,12,22,78,301,21,18,57,070,27,14,47,190,15,27,42,247,19*7F

$GPGSV,3,2,12,19,40,288,21,21,36,134,21,24,26,078,28,15,16,047,22*72

$GPGSV,3,3,12,04,16,306,10,11,06,313,,32,01,260,,26,00,032,20*79

$GPRMC,202554.482,A,4643.3997,N,11711.2395,W,000.0,124.4,181214,,,A*71

$GPVTG,124.4,T,,M,000.0,N,000.0,K,A*0E

$GPGGA,202555.482,4643.3997,N,11711.2395,W,1,08,1.1,752.4,M,-14.3,M,,0000*69

$GPGSA,A,3,21,27,22,15,18,24,14,19,,,,,2.3,1.1,2.0*31

$GPGSV,3,1,12,22,78,301,21,18,57,070,26,14,47,190,15,27,42,247,20*74

$GPGSV,3,2,12,19,40,288,20,21,36,134,21,24,26,078,28,15,16,047,22*73

$GPGSV,3,3,12,04,16,306,11,11,06,313,,32,01,260,,26,00,032,20*78

$GPRMC,202555.482,A,4643.3997,N,11711.2395,W,000.0,124.4,181214,,,A*70

$GPVTG,124.4,T,,M,000.0,N,000.0,K,A*0E

$GPGGA,202556.482,4643.3997,N,11711.2395,W,1,08,1.1,752.4,M,-14.3,M,,0000*6A

$GPGSA,A,3,21,27,22,15,18,24,14,19,,,,,2.3,1.1,2.0*31

$GPGSV,3,1,12,22,78,301,20,18,57,070,27,14,47,190,16,27,42,247,22*75

$GPGSV,3,2,12,19,40,288,20,21,36,134,21,24,26,078,28,15,16,047,22*73

$GPGSV,3,3,12,04,16,306,11,11,06,313,,32,01,260,,26,00,032,20*78

$GPRMC,202556.482,A,4643.3997,N,11711.2395,W,000.0,124.4,181214,,,A*73

$GPVTG,124.4,T,,M,000.0,N,000.0,K,A*0E

$GPGGA,202557.482,4643.3997,N,11711.2395,W,1,07,1.3,752.4,M,-14.3,M,,0000*66

$GPGSA,A,3,21,27,22,15,18,24,14,,,,,,2.5,1.3,2.1*3C

$GPGSV,3,1,12,22,78,301,20,18,57,070,27,14,47,190,16,27,42,247,23*74

$GPGSV,3,2,12,19,41,288,19,21,36,134,22,24,26,078,28,15,16,047,22*7B

$GPGSV,3,3,12,04,16,306,10,11,06,313,,32,01,260,,26,00,032,20*79

$GPRMC,202557.482,A,4643.3997,N,11711.2395,W,000.0,124.4,181214,,,A*72

$GPVTG,124.4,T,,M,000.0,N,000.0,K,A*0E

$GPGGA,202558.482,4643.3997,N,11711.2395,W,1,06,1.5,752.4,M,-14.3,M,,0000*6E

$GPGSA,A,3,21,27,22,15,18,24,,,,,,,2.6,1.5,2.1*3C

$GPGSV,3,1,12,22,78,301,20,18,57,070,26,14,47,190,16,27,42,247,23*75

$GPGSV,3,2,12,19,41,288,18,21,36,134,21,24,26,078,27,15,16,047,22*76

$GPGSV,3,3,12,04,16,306,09,11,06,313,,32,01,260,,26,00,032,20*71

$GPRMC,202558.482,A,4643.3997,N,11711.2395,W,000.0,124.4,181214,,,A*7D

$GPVTG,124.4,T,,M,000.0,N,000.0,K,A*0E

$GPGGA,202559.482,4643.3997,N,11711.2395,W,1,07,1.3,752.4,M,-14.3,M,,0000*68

$GPGSA,A,3,21,27,22,15,18,24,14,,,,,,2.5,1.3,2.1*3C

$GPGSV,3,1,12,22,78,301,20,18,57,070,26,14,47,190,16,27,42,247,22*74

$GPGSV,3,2,12,19,41,288,16,21,35,134,22,24,26,078,28,15,16,047,22*77

$GPGSV,3,3,12,04,16,306,10,11,06,313,,32,01,260,,26,00,032,20*79

$GPRMC,202559.482,A,4643.3997,N,11711.2395,W,000.0,124.4,181214,,,A*7C

$GPVTG,124.4,T,,M,000.0,N,000.0,K,A*0E

$GPGGA,202600.482,4643.3997,N,11711.2395,W,1,07,1.3,752.4,M,-14.3,M,,0000*67

$GPGSA,A,3,21,27,22,15,18,24,14,,,,,,2.5,1.3,2.1*3C

$GPGSV,3,1,12,22,78,302,20,18,57,070,27,14,47,190,16,27,42,247,22*76

$GPGSV,3,2,12,19,41,288,16,21,35,134,23,24,26,078,27,15,16,047,22*79

$GPGSV,3,3,12,04,16,306,11,11,06,313,,32,01,260,,26,00,032,20*78

$GPRMC,202600.482,A,4643.3997,N,11711.2395,W,000.0,124.4,181214,,,A*73

$GPVTG,124.4,T,,M,000.0,N,000.0,K,A*0E

$GPGGA,202601.482,4643.3997,N,11711.2395,W,1,08,1.1,752.4,M,-14.3,M,,0000*6B

$GPGSA,A,3,21,27,22,15,18,24,14,19,,,,,2.3,1.1,2.0*31

$GPGSV,3,1,12,22,78,302,20,18,57,070,26,14,47,190,16,27,42,247,22*77

$GPGSV,3,2,12,19,41,288,16,21,35,134,22,24,26,078,28,15,16,047,22*77

$GPGSV,3,3,12,04,16,306,10,11,06,313,,32,01,260,,26,00,032,21*78

$GPRMC,202601.482,A,4643.3997,N,11711.2395,W,000.0,124.4,181214,,,A*72

$GPVTG,124.4,T,,M,000.0,N,000.0,K,A*0E

$GPGGA,202602.482,4643.3997,N,11711.2395,W,1,07,1.3,752.4,M,-14.3,M,,0000*65

$GPGSA,A,3,21,27,22,15,18,24,14,,,,,,2.5,1.3,2.1*3C

$GPGSV,3,1,12,22,78,302,20,18,57,070,27,14,47,190,15,27,42,247,22*75

$GPGSV,3,2,12,19,41,288,16,21,35,134,23,24,26,078,27,15,16,047,22*79

$GPGSV,3,3,12,04,16,306,10,11,06,313,,32,01,260,,26,00,032,21*78

$GPRMC,202602.482,A,4643.3997,N,11711.2395,W,000.8,138.4,181214,,,A*74

$GPVTG,138.4,T,,M,000.8,N,001.5,K,A*0F

$GPGGA,202603.482,4643.3997,N,11711.2395,W,1,07,1.3,752.4,M,-14.3,M,,0000*64

$GPGSA,A,3,21,27,22,15,18,24,14,,,,,,2.5,1.3,2.1*3C

$GPGSV,3,1,12,22,78,302,20,18,57,070,26,14,47,190,16,27,42,247,21*74

$GPGSV,3,2,12,19,41,288,17,21,35,134,23,24,26,078,27,15,16,047,22*78

$GPGSV,3,3,12,04,16,306,10,11,06,313,,32,01,260,,28,00,355,*77

$GPRMC,202603.482,A,4643.3997,N,11711.2395,W,001.0,148.5,181214,,,A*7A

$GPVTG,148.5,T,,M,001.0,N,001.8,K,A*0D

$GPGGA,202604.482,4643.3997,N,11711.2395,W,1,07,1.3,752.4,M,-14.3,M,,0000*63

$GPGSA,A,3,21,27,22,15,18,24,14,,,,,,2.5,1.3,2.1*3C

$GPGSV,3,1,12,22,78,302,20,18,57,070,26,14,47,190,15,27,42,247,21*77

$GPGSV,3,2,12,19,41,288,16,21,35,134,23,24,26,078,27,15,16,047,22*79

$GPGSV,3,3,12,04,16,306,09,11,06,313,,32,01,260,,28,00,355,*7F

$GPRMC,202604.482,A,4643.3997,N,11711.2395,W,000.0,148.5,181214,,,A*7C

$GPVTG,148.5,T,,M,000.0,N,000.0,K,A*05

$GPGGA,202605.482,4643.3997,N,11711.2395,W,1,06,1.5,752.4,M,-14.3,M,,0000*65

$GPGSA,A,3,21,27,22,15,18,24,,,,,,,2.6,1.5,2.1*3C

$GPGSV,3,1,12,22,78,302,21,18,57,070,27,14,47,190,15,27,42,247,21*77

$GPGSV,3,2,12,19,41,288,16,21,35,134,23,24,26,078,26,15,16,047,21*7B

$GPGSV,3,3,12,04,16,306,08,11,06,313,,32,01,260,,28,00,355,*7E

$GPRMC,202605.482,A,4643.3997,N,11711.2395,W,000.0,148.5,181214,,,A*7D

$GPVTG,148.5,T,,M,000.0,N,000.0,K,A*05

$GPGGA,202606.482,4643.3997,N,11711.2395,W,1,06,1.5,752.4,M,-14.3,M,,0000*66

$GPGSA,A,3,21,27,22,15,18,24,,,,,,,2.6,1.5,2.1*3C

$GPGSV,3,1,12,22,78,302,21,18,57,070,27,14,47,190,15,27,42,247,20*76

$GPGSV,3,2,12,19,41,288,18,21,35,134,23,24,26,078,27,15,16,047,21*74

$GPGSV,3,3,12,04,16,306,07,11,06,313,,32,01,260,,28,00,355,*71

$GPRMC,202606.482,A,4643.3997,N,11711.2395,W,000.0,148.5,181214,,,A*7E

$GPVTG,148.5,T,,M,000.0,N,000.0,K,A*05

$GPGGA,202607.482,4643.3997,N,11711.2395,W,1,06,1.5,752.4,M,-14.3,M,,0000*67

$GPGSA,A,3,21,27,22,15,18,24,,,,,,,2.6,1.5,2.1*3C

$GPGSV,3,1,12,22,78,302,21,18,57,070,27,14,47,190,13,27,42,247,20*70

$GPGSV,3,2,12,19,41,288,17,21,35,134,24,24,26,078,27,15,16,047,21*7C

$GPGSV,3,3,12,04,16,306,06,11,06,313,,32,01,260,,26,00,032,20*7E

$GPRMC,202607.482,A,4643.3997,N,11711.2395,W,000.0,148.5,181214,,,A*7F

$GPVTG,148.5,T,,M,000.0,N,000.0,K,A*05

$GPGGA,202608.482,4643.3997,N,11711.2395,W,1,06,1.5,752.4,M,-14.3,M,,0000*68

$GPGSA,A,3,21,27,22,15,18,24,,,,,,,2.6,1.5,2.1*3C

$GPGSV,3,1,12,22,78,302,21,18,57,070,26,14,47,190,15,27,42,247,20*77

$GPGSV,3,2,12,19,41,288,17,21,35,134,24,24,26,078,27,15,16,047,20*7D

$GPGSV,3,3,12,04,16,306,08,11,06,313,,29,00,156,21,26,00,032,21*7F

$GPRMC,202608.482,A,4643.3997,N,11711.2395,W,000.0,148.5,181214,,,A*70

$GPVTG,148.5,T,,M,000.0,N,000.0,K,A*05

$GPGGA,202609.482,4643.3997,N,11711.2395,W,1,07,1.3,752.4,M,-14.3,M,,0000*6E

$GPGSA,A,3,21,27,22,15,18,24,14,,,,,,2.5,1.3,2.1*3C

$GPGSV,3,1,12,22,78,302,21,18,57,070,27,14,47,190,16,27,42,247,19*7F

$GPGSV,3,2,12,19,41,288,17,21,35,134,24,24,26,078,27,15,16,047,19*77

$GPGSV,3,3,12,04,16,306,07,11,06,313,,29,00,156,22,26,00,032,21*73

$GPRMC,202609.482,A,4643.3997,N,11711.2395,W,000.0,148.5,181214,,,A*71

$GPVTG,148.5,T,,M,000.0,N,000.0,K,A*05

$GPGGA,202610.482,4643.3997,N,11711.2395,W,1,07,1.3,752.4,M,-14.3,M,,0000*66

$GPGSA,A,3,21,27,22,15,18,24,14,,,,,,2.5,1.3,2.1*3C

$GPGSV,3,1,12,22,78,302,21,18,57,070,27,14,47,190,16,27,42,247,19*7F

$GPGSV,3,2,12,19,41,288,17,21,35,134,24,24,26,078,28,15,16,047,19*78

$GPGSV,3,3,12,04,16,306,06,11,06,313,,29,00,156,22,26,00,032,21*72

$GPRMC,202610.482,A,4643.3997,N,11711.2395,W,000.0,148.5,181214,,,A*79

$GPVTG,148.5,T,,M,000.0,N,000.0,K,A*05

$GPGGA,202611.482,4643.3997,N,11711.2395,W,1,07,1.3,752.4,M,-14.3,M,,0000*67

$GPGSA,A,3,21,27,22,15,18,24,14,,,,,,2.5,1.3,2.1*3C

$GPGSV,3,1,12,22,78,302,21,18,57,070,28,14,47,190,17,27,42,247,19*71

$GPGSV,3,2,12,19,41,288,17,21,35,134,24,24,26,078,28,15,16,047,20*72

$GPGSV,3,3,12,04,16,306,05,11,06,313,,29,00,156,22,26,00,032,21*71

$GPRMC,202611.482,A,4643.3997,N,11711.2395,W,000.0,148.5,181214,,,A*78

$GPVTG,148.5,T,,M,000.0,N,000.0,K,A*05

$GPGGA,202612.482,4643.3997,N,11711.2395,W,1,07,1.3,752.4,M,-14.3,M,,0000*64

$GPGSA,A,3,21,27,22,15,18,24,14,,,,,,2.5,1.3,2.1*3C

$GPGSV,3,1,12,22,78,302,22,18,57,070,27,14,47,190,17,27,42,247,20*77

$GPGSV,3,2,12,19,41,288,16,21,35,134,24,24,26,078,27,15,16,047,19*76

$GPGSV,3,3,12,04,16,306,05,11,06,313,,29,00,156,22,26,00,032,21*71

$GPRMC,202612.482,A,4643.3997,N,11711.2395,W,000.0,148.5,181214,,,A*7B

$GPVTG,148.5,T,,M,000.0,N,000.0,K,A*05

$GPGGA,202613.482,4643.3997,N,11711.2395,W,1,07,1.3,752.4,M,-14.3,M,,0000*65

$GPGSA,A,3,21,27,22,15,18,24,14,,,,,,2.5,1.3,2.1*3C

$GPGSV,3,1,12,22,78,302,22,18,57,070,28,14,47,190,17,27,42,247,19*72

$GPGSV,3,2,12,19,41,288,16,21,35,134,24,24,26,078,26,15,16,047,19*77

$GPGSV,3,3,12,04,16,306,04,11,06,313,,29,00,156,22,26,00,032,21*70

$GPRMC,202613.482,A,4643.3997,N,11711.2395,W,000.0,148.5,181214,,,A*7A

$GPVTG,148.5,T,,M,000.0,N,000.0,K,A*05

$GPGGA,202614.482,4643.3997,N,11711.2395,W,1,07,1.3,752.4,M,-14.3,M,,0000*62

$GPGSA,A,3,21,27,22,15,18,24,14,,,,,,2.5,1.3,2.1*3C

$GPGSV,3,1,12,22,78,302,22,18,57,070,27,14,47,190,18,27,42,247,19*72

$GPGSV,3,2,12,19,41,288,16,21,35,134,24,24,26,078,27,15,16,047,19*76

$GPGSV,3,3,12,04,16,306,05,11,06,313,,29,00,156,22,26,00,032,21*71

$GPRMC,202614.482,A,4643.3997,N,11711.2395,W,000.0,148.5,181214,,,A*7D

$GPVTG,148.5,T,,M,000.0,N,000.0,K,A*05

$GPGGA,202615.482,4643.3997,N,11711.2395,W,1,07,1.3,752.4,M,-14.3,M,,0000*63

$GPGSA,A,3,21,27,22,15,18,24,14,,,,,,2.5,1.3,2.1*3C

$GPGSV,3,1,12,22,78,302,22,18,57,070,28,14,47,190,20,27,42,247,20*7C

$GPGSV,3,2,12,19,41,288,16,21,35,134,24,24,26,078,27,15,16,047,20*7C

$GPGSV,3,3,12,04,16,306,04,11,06,313,,29,00,156,22,26,00,032,21*70

$GPRMC,202615.482,A,4643.3997,N,11711.2395,W,000.0,148.5,181214,,,A*7C

$GPVTG,148.5,T,,M,000.0,N,000.0,K,A*05

$GPGGA,202616.482,4643.3997,N,11711.2395,W,1,07,1.3,752.4,M,-14.3,M,,0000*60

$GPGSA,A,3,21,27,22,15,18,24,14,,,,,,2.5,1.3,2.1*3C

$GPGSV,3,1,12,22,78,302,22,18,57,070,28,14,47,190,22,27,42,247,20*7E

$GPGSV,3,2,12,19,41,288,17,21,35,134,24,24,26,078,26,15,16,047,19*76

$GPGSV,3,3,12,04,16,306,04,11,06,313,,29,00,156,23,26,00,032,21*71

$GPRMC,202616.482,A,4643.3997,N,11711.2395,W,000.0,148.5,181214,,,A*7F

$GPVTG,148.5,T,,M,000.0,N,000.0,K,A*05

$GPGGA,202617.482,4643.3997,N,11711.2395,W,1,07,1.3,752.4,M,-14.3,M,,0000*61

$GPGSA,A,3,21,27,22,15,18,24,14,,,,,,2.5,1.3,2.1*3C

$GPGSV,3,1,12,22,78,302,21,18,57,070,28,14,47,190,23,27,42,247,20*7C

$GPGSV,3,2,12,19,41,288,17,21,35,134,24,24,26,078,27,15,16,047,19*77

$GPGSV,3,3,12,04,16,306,03,11,06,313,,29,00,156,22,26,00,032,21*77

$GPRMC,202617.482,A,4643.3997,N,11711.2395,W,000.0,148.5,181214,,,A*7E

$GPVTG,148.5,T,,M,000.0,N,000.0,K,A*05

$GPGGA,202618.482,4643.3997,N,11711.2395,W,1,07,1.3,752.4,M,-14.3,M,,0000*6E

$GPGSA,A,3,21,27,22,15,18,24,14,,,,,,2.5,1.3,2.1*3C

$GPGSV,3,1,12,22,78,302,21,18,57,070,28,14,47,190,23,27,42,247,19*76

$GPGSV,3,2,12,19,41,288,17,21,35,134,24,24,26,078,27,15,16,047,20*7D

$GPGSV,3,3,12,04,16,306,03,11,06,313,,29,00,156,22,26,00,032,21*77

$GPRMC,202618.482,A,4643.3997,N,11711.2395,W,000.0,148.5,181214,,,A*71

$GPVTG,148.5,T,,M,000.0,N,000.0,K,A*05

$GPGGA,202619.482,4643.3997,N,11711.2395,W,1,07,1.3,752.4,M,-14.3,M,,0000*6F

$GPGSA,A,3,21,27,22,15,18,24,14,,,,,,2.5,1.3,2.1*3C

$GPGSV,3,1,12,22,78,302,21,18,57,070,29,14,47,190,22,27,42,247,19*76

$GPGSV,3,2,12,19,41,288,18,21,35,134,23,24,26,078,27,15,16,047,20*75

$GPGSV,3,3,12,04,16,306,12,11,06,313,,29,00,156,22,26,00,032,21*77

$GPRMC,202619.482,A,4643.3997,N,11711.2395,W,000.0,148.5,181214,,,A*70

$GPVTG,148.5,T,,M,000.0,N,000.0,K,A*05

$GPGGA,202620.482,4643.3997,N,11711.2395,W,1,07,1.3,752.4,M,-14.3,M,,0000*65

$GPGSA,A,3,21,27,22,15,18,24,14,,,,,,2.5,1.3,2.1*3C

$GPGSV,3,1,12,22,78,302,21,18,57,070,28,14,47,190,22,27,42,247,20*7D

$GPGSV,3,2,12,19,41,288,17,21,35,134,23,24,26,078,26,15,16,047,19*71

$GPGSV,3,3,12,04,16,306,16,11,06,313,,29,00,156,22,26,00,032,21*73

$GPRMC,202620.482,A,4643.3997,N,11711.2395,W,000.0,148.5,181214,,,A*7A

$GPVTG,148.5,T,,M,000.0,N,000.0,K,A*05

$GPGGA,202621.482,4643.3997,N,11711.2395,W,1,07,1.3,752.4,M,-14.3,M,,0000*64

$GPGSA,A,3,21,27,22,15,18,24,14,,,,,,2.5,1.3,2.1*3C

$GPGSV,3,1,12,22,78,302,21,18,57,070,28,14,47,190,21,27,42,247,20*7E

$GPGSV,3,2,12,19,41,288,18,21,35,134,23,24,26,078,27,15,16,047,19*7F

$GPGSV,3,3,12,04,16,306,17,11,06,313,,29,00,156,22,26,00,032,21*72

$GPRMC,202621.482,A,4643.3997,N,11711.2395,W,000.0,148.5,181214,,,A*7B

$GPVTG,148.5,T,,M,000.0,N,000.0,K,A*05

$GPGGA,202622.482,4643.3997,N,11711.2395,W,1,07,1.3,752.4,M,-14.3,M,,0000*67

$GPGSA,A,3,21,27,22,15,18,24,14,,,,,,2.5,1.3,2.1*3C

$GPGSV,3,1,12,22,78,302,22,18,57,070,29,14,47,190,21,27,42,247,22*7E

$GPGSV,3,2,12,19,41,288,18,21,35,134,23,24,26,078,26,15,16,047,19*7E

$GPGSV,3,3,12,04,16,306,18,11,06,313,,29,00,156,22,26,00,032,21*7D

$GPRMC,202622.482,A,4643.3997,N,11711.2395,W,000.0,148.5,181214,,,A*78

$GPVTG,148.5,T,,M,000.0,N,000.0,K,A*05

$GPGGA,202623.482,4643.3997,N,11711.2395,W,1,07,1.3,752.4,M,-14.3,M,,0000*66

$GPGSA,A,3,21,27,22,15,18,24,14,,,,,,2.5,1.3,2.1*3C

$GPGSV,3,1,12,22,78,302,22,18,57,070,28,14,48,190,21,27,42,247,22*70

$GPGSV,3,2,12,19,41,288,17,21,35,134,22,24,26,078,26,15,16,047,18*71

$GPGSV,3,3,12,04,16,306,18,11,06,313,,29,00,156,22,26,00,032,21*7D

$GPRMC,202623.482,A,4643.3997,N,11711.2395,W,000.0,148.5,181214,,,A*79

$GPVTG,148.5,T,,M,000.0,N,000.0,K,A*05

$GPGGA,202624.482,4643.3997,N,11711.2395,W,1,07,1.3,752.4,M,-14.3,M,,0000*61

$GPGSA,A,3,21,27,22,15,18,24,14,,,,,,2.5,1.3,2.1*3C

$GPGSV,3,1,12,22,78,302,22,18,57,070,28,14,48,190,20,27,42,247,22*71

$GPGSV,3,2,12,19,41,288,17,21,35,134,22,24,26,078,26,04,16,306,18*77

$GPGSV,3,3,12,15,15,047,18,11,06,313,,29,00,156,22,26,00,032,21*78

$GPRMC,202624.482,A,4643.3997,N,11711.2395,W,000.0,148.5,181214,,,A*7E

$GPVTG,148.5,T,,M,000.0,N,000.0,K,A*05

$GPGGA,202625.482,4643.3997,N,11711.2395,W,1,07,1.3,752.4,M,-14.3,M,,0000*60

$GPGSA,A,3,21,27,22,15,18,24,14,,,,,,2.5,1.3,2.1*3C

$GPGSV,3,1,12,22,78,302,23,18,57,070,29,14,48,190,20,27,42,247,22*71

$GPGSV,3,2,12,19,41,288,17,21,35,134,22,24,26,078,25,04,16,306,17*7B

$GPGSV,3,3,12,15,15,047,18,11,06,313,,29,00,156,22,26,00,032,21*78

$GPRMC,202625.482,A,4643.3997,N,11711.2395,W,000.0,148.5,181214,,,A*7F

$GPVTG,148.5,T,,M,000.0,N,000.0,K,A*05

$GPGGA,202626.482,4643.3997,N,11711.2395,W,1,07,1.3,752.4,M,-14.3,M,,0000*63

$GPGSA,A,3,21,27,22,15,18,24,14,,,,,,2.5,1.3,2.1*3C

$GPGSV,3,1,12,22,78,302,23,18,57,070,29,14,48,190,19,27,42,247,22*7B

$GPGSV,3,2,12,19,41,288,18,21,35,134,22,24,26,078,25,04,16,306,17*74

$GPGSV,3,3,12,15,15,047,18,11,06,313,,29,00,156,22,26,00,032,21*78

$GPRMC,202626.482,A,4643.3997,N,11711.2395,W,000.0,148.5,181214,,,A*7C

$GPVTG,148.5,T,,M,000.0,N,000.0,K,A*05

$GPGGA,202627.482,4643.3997,N,11711.2395,W,1,07,1.3,752.4,M,-14.3,M,,0000*62

$GPGSA,A,3,21,27,22,15,18,24,14,,,,,,2.5,1.3,2.1*3C

$GPGSV,3,1,12,22,78,302,23,18,57,070,29,14,48,190,19,27,42,247,22*7B

$GPGSV,3,2,12,19,41,288,18,21,35,134,22,24,26,078,25,04,16,306,18*7B

$GPGSV,3,3,12,15,15,047,18,11,06,313,,29,00,156,22,26,00,032,21*78

$GPRMC,202627.482,A,4643.3997,N,11711.2395,W,000.0,148.5,181214,,,A*7D

$GPVTG,148.5,T,,M,000.0,N,000.0,K,A*05

$GPGGA,202628.482,4643.3997,N,11711.2395,W,1,07,1.3,752.4,M,-14.3,M,,0000*6D

$GPGSA,A,3,21,27,22,15,18,24,14,,,,,,2.5,1.3,2.1*3C

$GPGSV,3,1,12,22,78,302,23,18,57,070,29,14,48,190,18,27,42,247,22*7A

$GPGSV,3,2,12,19,41,288,18,21,35,134,22,24,26,078,25,04,16,306,17*74

$GPGSV,3,3,12,15,15,047,17,11,06,313,,29,00,156,21,26,00,032,21*74

$GPRMC,202628.482,A,4643.3997,N,11711.2395,W,000.0,148.5,181214,,,A*72

$GPVTG,148.5,T,,M,000.0,N,000.0,K,A*05

$GPGGA,202629.482,4643.3997,N,11711.2395,W,1,07,1.3,752.4,M,-14.3,M,,0000*6C

$GPGSA,A,3,21,27,22,15,18,24,14,,,,,,2.5,1.3,2.1*3C

$GPGSV,3,1,12,22,78,302,23,18,57,070,28,14,48,190,18,27,42,247,23*7A

$GPGSV,3,2,12,19,41,288,17,21,35,134,22,24,26,078,25,04,16,306,17*7B

$GPGSV,3,3,12,15,15,047,17,11,06,313,,29,00,156,21,26,00,032,20*75

$GPRMC,202629.482,A,4643.3997,N,11711.2395,W,000.0,148.5,181214,,,A*73

$GPVTG,148.5,T,,M,000.0,N,000.0,K,A*05

$GPGGA,202630.482,4643.3997,N,11711.2395,W,1,07,1.3,752.4,M,-14.3,M,,0000*64

$GPGSA,A,3,21,27,22,15,18,24,14,,,,,,2.5,1.3,2.1*3C

$GPGSV,3,1,12,22,78,302,23,18,57,070,28,14,48,190,18,27,42,247,23*7A

$GPGSV,3,2,12,19,41,288,17,21,35,134,22,24,26,078,25,04,16,306,17*7B

$GPGSV,3,3,12,15,15,047,16,11,06,313,,29,00,156,21,26,00,032,20*74

$GPRMC,202630.482,A,4643.3997,N,11711.2395,W,000.0,148.5,181214,,,A*7B

$GPVTG,148.5,T,,M,000.0,N,000.0,K,A*05

$GPGGA,202631.482,4643.3997,N,11711.2395,W,1,07,1.3,752.4,M,-14.3,M,,0000*65

$GPGSA,A,3,21,27,22,15,18,24,14,,,,,,2.5,1.3,2.1*3C

$GPGSV,3,1,12,22,78,303,22,18,57,070,29,14,48,190,17,27,42,247,23*74

$GPGSV,3,2,12,19,41,288,17,21,35,134,23,24,26,078,24,04,16,306,17*7B

$GPGSV,3,3,12,15,15,047,17,11,06,313,,29,00,156,21,26,00,032,20*75

$GPRMC,202631.482,A,4643.3997,N,11711.2395,W,000.0,148.5,181214,,,A*7A

$GPVTG,148.5,T,,M,000.0,N,000.0,K,A*05

$GPGGA,202632.482,4643.3997,N,11711.2395,W,1,07,1.3,752.4,M,-14.3,M,,0000*66

$GPGSA,A,3,21,27,22,15,18,24,14,,,,,,2.5,1.3,2.1*3C

$GPGSV,3,1,12,22,78,303,23,18,57,070,29,14,48,190,20,27,42,247,22*70

$GPGSV,3,2,12,19,41,288,17,21,35,134,23,24,26,078,24,04,16,306,16*7A

$GPGSV,3,3,12,15,15,047,18,11,06,313,,29,00,156,21,26,00,032,20*7A

$GPRMC,202632.482,A,4643.3997,N,11711.2395,W,000.0,148.5,181214,,,A*79

$GPVTG,148.5,T,,M,000.0,N,000.0,K,A*05

$GPGGA,202633.482,4643.3997,N,11711.2395,W,1,07,1.3,752.4,M,-14.3,M,,0000*67

$GPGSA,A,3,21,27,22,15,18,24,14,,,,,,2.5,1.3,2.1*3C

$GPGSV,3,1,12,22,78,303,23,18,57,070,29,14,48,190,20,27,42,247,22*70

$GPGSV,3,2,12,19,41,288,16,21,35,134,24,24,26,078,24,04,16,306,15*7F

$GPGSV,3,3,12,15,15,047,18,11,06,313,,29,00,156,21,26,00,032,20*7A

$GPRMC,202633.482,A,4643.3997,N,11711.2395,W,000.0,148.5,181214,,,A*78

$GPVTG,148.5,T,,M,000.0,N,000.0,K,A*05

$GPGGA,202634.482,4643.3997,N,11711.2395,W,1,07,1.3,752.4,M,-14.3,M,,0000*60

$GPGSA,A,3,21,27,22,15,18,24,14,,,,,,2.5,1.3,2.1*3C

$GPGSV,3,1,12,22,78,303,23,18,57,070,28,14,48,190,20,27,42,247,22*71

$GPGSV,3,2,12,19,41,288,16,21,35,134,24,24,26,078,24,04,16,306,15*7F

$GPGSV,3,3,12,15,15,047,18,11,06,313,,29,00,156,21,26,00,032,20*7A

$GPRMC,202634.482,A,4643.3997,N,11711.2395,W,000.0,148.5,181214,,,A*7F

$GPVTG,148.5,T,,M,000.0,N,000.0,K,A*05

$GPGGA,202635.482,4643.3997,N,11711.2395,W,1,07,1.3,752.4,M,-14.3,M,,0000*61

$GPGSA,A,3,21,27,22,15,18,24,14,,,,,,2.5,1.3,2.1*3C

$GPGSV,3,1,12,22,78,303,23,18,57,070,29,14,48,190,20,27,42,247,22*70

$GPGSV,3,2,12,19,41,288,16,21,35,134,24,24,26,078,24,04,16,306,15*7F

$GPGSV,3,3,12,15,15,047,18,11,06,313,,29,00,156,20,26,00,032,21*7A

$GPRMC,202635.482,A,4643.3997,N,11711.2395,W,000.0,148.5,181214,,,A*7E

$GPVTG,148.5,T,,M,000.0,N,000.0,K,A*05

$GPGGA,202636.482,4643.3997,N,11711.2395,W,1,07,1.3,752.4,M,-14.3,M,,0000*62

$GPGSA,A,3,21,27,22,15,18,24,14,,,,,,2.5,1.3,2.1*3C

$GPGSV,3,1,12,22,78,303,24,18,57,070,30,14,48,190,22,27,42,247,21*7E

$GPGSV,3,2,12,19,41,288,17,21,35,134,24,24,26,078,24,04,16,306,15*7E

$GPGSV,3,3,12,15,15,047,18,11,06,313,,29,00,156,20,26,00,032,21*7A

$GPRMC,202636.482,A,4643.3997,N,11711.2395,W,000.0,148.5,181214,,,A*7D

$GPVTG,148.5,T,,M,000.0,N,000.0,K,A*05

$GPGGA,202637.482,4643.3997,N,11711.2395,W,1,07,1.3,752.4,M,-14.3,M,,0000*63

